[
  {
    "bureauId": "031297ABC",
    "agencySiteId": 170000034594,
    "lat": 41.594582,
    "lon": -87.619132,
    "name": "Carl Buddig & Co"
  },
  {
    "bureauId": "097090ABO",
    "agencySiteId": 170000101609,
    "lat": 42.292513,
    "lon": -88.000877,
    "name": "USG Corp Research Center"
  },
  {
    "bureauId": "113821AAA",
    "agencySiteId": 170000118771,
    "lat": 40.629868,
    "lon": -88.837576,
    "name": "Nicor Gas"
  },
  {
    "bureauId": "115015ABX",
    "agencySiteId": 170000119379,
    "lat": 39.848337,
    "lon": -88.927577,
    "name": "Tate & Lyle Ingredients Americas LLC"
  },
  {
    "bureauId": "119040ADS",
    "agencySiteId": 170000123550,
    "lat": 38.744579,
    "lon": -90.131908,
    "name": "Heidtman Steel Products Inc"
  },
  {
    "bureauId": "143804AAK",
    "agencySiteId": 170000135128,
    "lat": 40.932207,
    "lon": -89.695000,
    "name": "Rumbold & Kuhn Inc"
  },
  {
    "bureauId": "197491AAD",
    "agencySiteId": 170000161401,
    "lat": 41.556043,
    "lon": -87.820851,
    "name": "Vision Integrated Graphics Group LLC"
  },
  {
    "bureauId": "173801AAA",
    "agencySiteId": 170000148588,
    "lat": 39.279118,
    "lon": -88.477638,
    "name": "NRG Shelby County Generating Station"
  },
  {
    "bureauId": "143810AAG",
    "agencySiteId": 170000135547,
    "lat": 40.842986,
    "lon": -89.564194,
    "name": "Advanced Tri-Gen Power Systems Cogen Plant"
  },
  {
    "bureauId": "111803AAF",
    "agencySiteId": 170000115765,
    "lat": 42.416429,
    "lon": -88.681300,
    "name": "Catty Corp"
  },
  {
    "bureauId": "031497AAK",
    "agencySiteId": 170000040569,
    "lat": 42.122423,
    "lon": -87.916322,
    "name": "HLS Wheeling LLC"
  },
  {
    "bureauId": "111095ACE",
    "agencySiteId": 170001579922,
    "lat": 42.347271,
    "lon": -88.471053,
    "name": "Merryman Excavation Inc"
  },
  {
    "bureauId": "007005AAF",
    "agencySiteId": 170000001959,
    "lat": 42.236421,
    "lon": -88.865400,
    "name": "Chrysler Group LLC"
  },
  {
    "bureauId": "039801AAJ",
    "agencySiteId": 170000068548,
    "lat": 40.143186,
    "lon": -88.949974,
    "name": "RR Donnelley"
  },
  {
    "bureauId": "061040AAF",
    "agencySiteId": 170000083077,
    "lat": 39.441086,
    "lon": -90.397644,
    "name": "Ballard Bros Inc"
  },
  {
    "bureauId": "161065ABC",
    "agencySiteId": 170000140390,
    "lat": 41.500133,
    "lon": -90.594437,
    "name": "Norcross Safety Products LLC"
  },
  {
    "bureauId": "161065ADI",
    "agencySiteId": 170000140513,
    "lat": 41.509585,
    "lon": -90.565411,
    "name": "Illinois Oil Products Inc"
  },
  {
    "bureauId": "177020ABX",
    "agencySiteId": 170000149195,
    "lat": 42.311203,
    "lon": -89.615130,
    "name": "Danfoss Power Solutions (US) Company"
  },
  {
    "bureauId": "031600GFA",
    "agencySiteId": 170000061484,
    "lat": 41.745556,
    "lon": -87.586188,
    "name": "Swan Cleaners Inc"
  },
  {
    "bureauId": "197800ABS",
    "agencySiteId": 170000161786,
    "lat": 41.412493,
    "lon": -88.181673,
    "name": "Veolia Water North America Operating Services inc."
  },
  {
    "bureauId": "031600GYC",
    "agencySiteId": 170001905277,
    "lat": 41.979225,
    "lon": -87.898445,
    "name": "FedEx Express"
  },
  {
    "bureauId": "183804AAC",
    "agencySiteId": 170000153722,
    "lat": 40.074117,
    "lon": -87.646221,
    "name": "KIK Custom Products Inc"
  },
  {
    "bureauId": "095020AED",
    "agencySiteId": 170000099239,
    "lat": 40.986594,
    "lon": -90.360303,
    "name": "St Marys Medical Hospital"
  },
  {
    "bureauId": "085045AAM",
    "agencySiteId": 170000090498,
    "lat": 42.347734,
    "lon": -90.007162,
    "name": "Broshous Tire & Auto Service"
  },
  {
    "bureauId": "089483ACT",
    "agencySiteId": 170000095037,
    "lat": 41.915605,
    "lon": -88.267599,
    "name": "Bradley Coatings"
  },
  {
    "bureauId": "177813AAJ",
    "agencySiteId": 170000149943,
    "lat": 42.201557,
    "lon": -89.529866,
    "name": "Pearl City Baileyville Co-op"
  },
  {
    "bureauId": "077050ABK",
    "agencySiteId": 170000088884,
    "lat": 37.763971,
    "lon": -89.340764,
    "name": "Able Dry Cleaners"
  },
  {
    "bureauId": "019065AAN",
    "agencySiteId": 170000005875,
    "lat": 40.312324,
    "lon": -88.159545,
    "name": "Rantoul Electric Generating Plant"
  },
  {
    "bureauId": "019100AAD",
    "agencySiteId": 170000006339,
    "lat": 39.984623,
    "lon": -88.256427,
    "name": "Premier Coop"
  },
  {
    "bureauId": "031045ADR",
    "agencySiteId": 170000016364,
    "lat": 41.517951,
    "lon": -87.623712,
    "name": "Engineered Polymer Solutions dba Valspar Coatings"
  },
  {
    "bureauId": "031600CEV",
    "agencySiteId": 170000044958,
    "lat": 41.868525,
    "lon": -87.651633,
    "name": "University of Illinois Chicago"
  },
  {
    "bureauId": "053020AAU",
    "agencySiteId": 170000080560,
    "lat": 40.464664,
    "lon": -88.095747,
    "name": "Houston Oil Co"
  },
  {
    "bureauId": "071015AAA",
    "agencySiteId": 170000085565,
    "lat": 40.815164,
    "lon": -91.088870,
    "name": "ADM Grain Co"
  },
  {
    "bureauId": "043095AAT",
    "agencySiteId": 170000074997,
    "lat": 41.816857,
    "lon": -87.974064,
    "name": "Dixon Valve"
  },
  {
    "bureauId": "119040ATL",
    "agencySiteId": 170001586807,
    "lat": 38.701470,
    "lon": -90.128243,
    "name": "Tube City IMS LLC"
  },
  {
    "bureauId": "119020AAE",
    "agencySiteId": 170000122748,
    "lat": 38.863848,
    "lon": -90.133808,
    "name": "Dynegy Midwest Generation LLC"
  },
  {
    "bureauId": "161025ABM",
    "agencySiteId": 170000139259,
    "lat": 41.522524,
    "lon": -90.409830,
    "name": "Atlas Roofing Corp"
  },
  {
    "bureauId": "161045AHQ",
    "agencySiteId": 170000139963,
    "lat": 41.481494,
    "lon": -90.479833,
    "name": "Oak Knoll Animal Hospital Ltd"
  },
  {
    "bureauId": "163050AAA",
    "agencySiteId": 170000143235,
    "lat": 38.644700,
    "lon": -90.090007,
    "name": "Chemtrade Solutions LLC"
  },
  {
    "bureauId": "163065AAI",
    "agencySiteId": 170000143422,
    "lat": 38.592199,
    "lon": -89.800197,
    "name": "Christ Bros Products LLC"
  },
  {
    "bureauId": "043806AAN",
    "agencySiteId": 170000077814,
    "lat": 41.903409,
    "lon": -88.217423,
    "name": "Pro-pak Industries Inc"
  },
  {
    "bureauId": "031600FAN",
    "agencySiteId": 170000053849,
    "lat": 41.895297,
    "lon": -87.645373,
    "name": "Chicago Tribune Co"
  },
  {
    "bureauId": "031817AAF",
    "agencySiteId": 170000065186,
    "lat": 41.892761,
    "lon": -87.900079,
    "name": "Universal Grinding & Tool Service Inc"
  },
  {
    "bureauId": "049025ABO",
    "agencySiteId": 170000079206,
    "lat": 39.098842,
    "lon": -88.550150,
    "name": "QG LLC"
  },
  {
    "bureauId": "073030AAN",
    "agencySiteId": 170000085976,
    "lat": 41.302708,
    "lon": -90.183339,
    "name": "Henry County Highway Dept"
  },
  {
    "bureauId": "097080AAC",
    "agencySiteId": 170000100931,
    "lat": 42.253193,
    "lon": -87.865470,
    "name": "Lake Forest Hospital"
  },
  {
    "bureauId": "099831AAC",
    "agencySiteId": 170000108087,
    "lat": 41.335137,
    "lon": -88.859561,
    "name": "Cargill Inc"
  },
  {
    "bureauId": "031600GUL",
    "agencySiteId": 170001735905,
    "lat": 41.853604,
    "lon": -87.618265,
    "name": "Digital Lakeside LLC"
  },
  {
    "bureauId": "089407ABL",
    "agencySiteId": 170001740926,
    "lat": 41.805349,
    "lon": -88.292665,
    "name": "Berry Plastics Holding Co"
  },
  {
    "bureauId": "177802AAC",
    "agencySiteId": 170001830730,
    "lat": 42.331912,
    "lon": -89.759202,
    "name": "Furst McNess Co"
  },
  {
    "bureauId": "097812AAJ",
    "agencySiteId": 170001430547,
    "lat": 42.233809,
    "lon": -87.908973,
    "name": "WW Grainger Inc"
  },
  {
    "bureauId": "103817AAD",
    "agencySiteId": 170000109647,
    "lat": 41.811333,
    "lon": -89.475002,
    "name": "Donaldson Co Inc"
  },
  {
    "bureauId": "105804AAH",
    "agencySiteId": 170000110591,
    "lat": 40.819013,
    "lon": -88.288856,
    "name": "Alliance Grain Co"
  },
  {
    "bureauId": "115030AAA",
    "agencySiteId": 170000120731,
    "lat": 40.035753,
    "lon": -88.952853,
    "name": "Topflight Grain Cooperative"
  },
  {
    "bureauId": "203808AAB",
    "agencySiteId": 170000170712,
    "lat": 40.876330,
    "lon": -88.960027,
    "name": "Ruff Brothers Grain Co"
  },
  {
    "bureauId": "163020AAH",
    "agencySiteId": 170000142557,
    "lat": 38.582322,
    "lon": -90.206812,
    "name": "Consolidated Grain & Barge Co"
  },
  {
    "bureauId": "077015ACB",
    "agencySiteId": 170000088633,
    "lat": 37.747851,
    "lon": -89.218184,
    "name": "Knight Hawk Coal LLC"
  },
  {
    "bureauId": "031282ABF",
    "agencySiteId": 170000032578,
    "lat": 42.058936,
    "lon": -88.051636,
    "name": "Gonnella Frozen Products"
  },
  {
    "bureauId": "031600BAT",
    "agencySiteId": 170000042175,
    "lat": 41.987441,
    "lon": -87.814462,
    "name": "Presence Resurrection Medical Ctr"
  },
  {
    "bureauId": "031824AAB",
    "agencySiteId": 170000065818,
    "lat": 41.654974,
    "lon": -87.704459,
    "name": "Premcor Alsip Distribution Center"
  },
  {
    "bureauId": "033015AAG",
    "agencySiteId": 170000065952,
    "lat": 38.998953,
    "lon": -87.909290,
    "name": "Oblong Feed & Seed Inc"
  },
  {
    "bureauId": "033808AAL",
    "agencySiteId": 170000066452,
    "lat": 39.005402,
    "lon": -87.712726,
    "name": "Marathon Petroleum Co LP"
  },
  {
    "bureauId": "053030AAB",
    "agencySiteId": 170000080695,
    "lat": 40.758488,
    "lon": -88.193521,
    "name": "Ludlow Coop Elevator Co"
  },
  {
    "bureauId": "089407ABD",
    "agencySiteId": 170001566990,
    "lat": 41.774460,
    "lon": -88.330583,
    "name": "Poly USA Inc"
  },
  {
    "bureauId": "103801AAH",
    "agencySiteId": 170001743175,
    "lat": 41.757449,
    "lon": -89.245359,
    "name": "ADM/Fasco"
  },
  {
    "bureauId": "163802AAD",
    "agencySiteId": 170000144421,
    "lat": 38.598351,
    "lon": -90.127109,
    "name": "Solvay Fluorides LLC"
  },
  {
    "bureauId": "089438AFW",
    "agencySiteId": 170000094403,
    "lat": 42.073870,
    "lon": -88.295722,
    "name": "Wauconda Tool & Engineering Co Inc"
  },
  {
    "bureauId": "135815AAD",
    "agencySiteId": 170000130141,
    "lat": 39.147758,
    "lon": -89.667891,
    "name": "State Highway Construction Corp Inc"
  },
  {
    "bureauId": "031600GBB",
    "agencySiteId": 170000060458,
    "lat": 41.811918,
    "lon": -87.704372,
    "name": "Bel Aire Cleaners"
  },
  {
    "bureauId": "043450AAC",
    "agencySiteId": 170000076708,
    "lat": 41.977339,
    "lon": -88.035570,
    "name": "FPM LLC"
  },
  {
    "bureauId": "043407AAJ",
    "agencySiteId": 170000075736,
    "lat": 41.771557,
    "lon": -88.219551,
    "name": "The Hartford"
  },
  {
    "bureauId": "031003AAW",
    "agencySiteId": 170000011608,
    "lat": 41.653934,
    "lon": -87.715650,
    "name": "Alsip Acquisition LLC d/b/a FutureMark Paper"
  },
  {
    "bureauId": "031045AES",
    "agencySiteId": 170000016453,
    "lat": 41.505568,
    "lon": -87.609401,
    "name": "Trialco Inc"
  },
  {
    "bureauId": "031600FMH",
    "agencySiteId": 170000056659,
    "lat": 41.849217,
    "lon": -87.674699,
    "name": "John Hofmeister & Son"
  },
  {
    "bureauId": "097090AAA",
    "agencySiteId": 170000101486,
    "lat": 42.274616,
    "lon": -87.957286,
    "name": "Advocate Condell Medical Center"
  },
  {
    "bureauId": "063060ACJ",
    "agencySiteId": 170000083601,
    "lat": 41.384731,
    "lon": -88.395867,
    "name": "Environtech Inc"
  },
  {
    "bureauId": "183020AIJ",
    "agencySiteId": 170000153009,
    "lat": 40.101119,
    "lon": -87.600278,
    "name": "Brickyard Energy Partners LLC"
  },
  {
    "bureauId": "031003ADX",
    "agencySiteId": 170001767087,
    "lat": 41.677827,
    "lon": -87.769359,
    "name": "Aryzta LLC"
  },
  {
    "bureauId": "031186ADN",
    "agencySiteId": 170000026718,
    "lat": 41.914085,
    "lon": -87.875355,
    "name": "Lake Book Mfg"
  },
  {
    "bureauId": "031600BEB",
    "agencySiteId": 170000042273,
    "lat": 41.917474,
    "lon": -87.767869,
    "name": "Meskan Brass Foundry"
  },
  {
    "bureauId": "085812AAB",
    "agencySiteId": 170000090862,
    "lat": 42.435947,
    "lon": -90.452728,
    "name": "Signcraft Screenprint"
  },
  {
    "bureauId": "087854AAA",
    "agencySiteId": 170000091139,
    "lat": 37.493412,
    "lon": -88.963354,
    "name": "Southern Illinois Stone Co"
  },
  {
    "bureauId": "119105AAH",
    "agencySiteId": 170000124666,
    "lat": 38.685820,
    "lon": -90.166610,
    "name": "Magnesium Elektron North America"
  },
  {
    "bureauId": "131015AAB",
    "agencySiteId": 170000128680,
    "lat": 41.103355,
    "lon": -90.945743,
    "name": "ADM Grain Co"
  },
  {
    "bureauId": "043482AAW",
    "agencySiteId": 170000077146,
    "lat": 41.986028,
    "lon": -88.101472,
    "name": "Clarke Mosquito Control"
  },
  {
    "bureauId": "023010AAN",
    "agencySiteId": 170001719754,
    "lat": 39.458902,
    "lon": -87.623156,
    "name": "US Bio Marshall LLC"
  },
  {
    "bureauId": "197445AAM",
    "agencySiteId": 170001693371,
    "lat": 41.508358,
    "lon": -88.015585,
    "name": "Andrew Corp"
  },
  {
    "bureauId": "163045AFM",
    "agencySiteId": 170000143011,
    "lat": 38.601851,
    "lon": -90.132709,
    "name": "Nuplex Resins LLC"
  },
  {
    "bureauId": "197085AAV",
    "agencySiteId": 170000160652,
    "lat": 41.506471,
    "lon": -88.132660,
    "name": "Sandeno Inc"
  },
  {
    "bureauId": "095816AAA",
    "agencySiteId": 170000099809,
    "lat": 41.016178,
    "lon": -90.247724,
    "name": "Knox County Landfill"
  },
  {
    "bureauId": "179801ABA",
    "agencySiteId": 170000151412,
    "lat": 40.543939,
    "lon": -89.665904,
    "name": "Tazewell Machine Works Inc"
  },
  {
    "bureauId": "097095AAC",
    "agencySiteId": 170000101832,
    "lat": 42.233895,
    "lon": -87.943201,
    "name": "435 Inc"
  },
  {
    "bureauId": "113812AAI",
    "agencySiteId": 170000118520,
    "lat": 40.388216,
    "lon": -88.878074,
    "name": "Freesen Inc"
  },
  {
    "bureauId": "019070AAD",
    "agencySiteId": 170000006160,
    "lat": 40.192305,
    "lon": -87.972235,
    "name": "United Feeds Inc-Busboom Division"
  },
  {
    "bureauId": "031009AAS",
    "agencySiteId": 170000012340,
    "lat": 42.047328,
    "lon": -87.994270,
    "name": "Weber Marking Systems Inc"
  },
  {
    "bureauId": "045020AAI",
    "agencySiteId": 170000078118,
    "lat": 39.554137,
    "lon": -87.940758,
    "name": "Total Grain Marketing LLC"
  },
  {
    "bureauId": "053803AAF",
    "agencySiteId": 170000080873,
    "lat": 40.459961,
    "lon": -88.387187,
    "name": "Cargill Inc"
  },
  {
    "bureauId": "119806AAL",
    "agencySiteId": 170000125460,
    "lat": 38.997707,
    "lon": -90.237811,
    "name": "Kimaterials Inc-Lohr Quarry"
  },
  {
    "bureauId": "167080AAB",
    "agencySiteId": 170000145643,
    "lat": 39.723710,
    "lon": -89.912508,
    "name": "Farmers Grain Co of New Berlin"
  },
  {
    "bureauId": "031600FYB",
    "agencySiteId": 170000059674,
    "lat": 41.836363,
    "lon": -87.671553,
    "name": "East Balt Commissary Inc"
  },
  {
    "bureauId": "201017AAB",
    "agencySiteId": 170000165283,
    "lat": 42.372818,
    "lon": -89.024607,
    "name": "Curtis Metal Finishing Co"
  },
  {
    "bureauId": "029805AAN",
    "agencySiteId": 170000011332,
    "lat": 39.508204,
    "lon": -88.264244,
    "name": "ERC/Coles County Landfill"
  },
  {
    "bureauId": "201806AAC",
    "agencySiteId": 170000169216,
    "lat": 42.397967,
    "lon": -89.103409,
    "name": "St Francis Pet Crematory"
  },
  {
    "bureauId": "079010AAU",
    "agencySiteId": 170001655251,
    "lat": 38.976465,
    "lon": -88.153054,
    "name": "BN National Trail Biodiesel LLC"
  },
  {
    "bureauId": "031270AAB",
    "agencySiteId": 170001714330,
    "lat": 41.650334,
    "lon": -87.701549,
    "name": "Robbins Community Power LLC"
  },
  {
    "bureauId": "031003ABT",
    "agencySiteId": 170000011680,
    "lat": 41.672193,
    "lon": -87.760052,
    "name": "Griffith Laboratories USA Inc"
  },
  {
    "bureauId": "031024AAY",
    "agencySiteId": 170000014464,
    "lat": 41.638184,
    "lon": -87.671348,
    "name": "Solvay USA Inc"
  },
  {
    "bureauId": "031600AYH",
    "agencySiteId": 170000042086,
    "lat": 41.837426,
    "lon": -87.707766,
    "name": "Pure Asphalt Co"
  },
  {
    "bureauId": "033808AAB",
    "agencySiteId": 170000066372,
    "lat": 38.998676,
    "lon": -87.724781,
    "name": "Marathon Petroleum Co LLC"
  },
  {
    "bureauId": "037045AAB",
    "agencySiteId": 170000067273,
    "lat": 41.771156,
    "lon": -88.878457,
    "name": "Mullins Grain Co"
  },
  {
    "bureauId": "093802AAF",
    "agencySiteId": 170000098677,
    "lat": 41.622950,
    "lon": -88.581275,
    "name": "ANR Pipeline Co"
  },
  {
    "bureauId": "063060ACX",
    "agencySiteId": 170000083745,
    "lat": 41.380303,
    "lon": -88.408811,
    "name": "D Construction Inc"
  },
  {
    "bureauId": "197090ABJ",
    "agencySiteId": 170000811619,
    "lat": 41.662859,
    "lon": -88.117332,
    "name": "Cintas Corp-#344"
  },
  {
    "bureauId": "081020AAB",
    "agencySiteId": 170001584220,
    "lat": 38.436528,
    "lon": -88.954389,
    "name": "Latham Pool Products Inc d/b/a Viking Pools-IL"
  },
  {
    "bureauId": "043470AAE",
    "agencySiteId": 170001849105,
    "lat": 41.844915,
    "lon": -87.941348,
    "name": "ClearBlue Technologies/OakBrook Inc"
  },
  {
    "bureauId": "119465AAJ",
    "agencySiteId": 170002049913,
    "lat": 38.673126,
    "lon": -90.146037,
    "name": "Beelman Truck Co Inc"
  },
  {
    "bureauId": "187800AAE",
    "agencySiteId": 170000154981,
    "lat": 40.800074,
    "lon": -90.544402,
    "name": "Berwick Grain Co Inc"
  },
  {
    "bureauId": "197810AAN",
    "agencySiteId": 170000162981,
    "lat": 41.629431,
    "lon": -88.065860,
    "name": "Lafarge North America"
  },
  {
    "bureauId": "201030ARG",
    "agencySiteId": 170000166601,
    "lat": 42.265430,
    "lon": -89.074306,
    "name": "Swedish American Hospital"
  },
  {
    "bureauId": "167120AMI",
    "agencySiteId": 170000146642,
    "lat": 39.851840,
    "lon": -89.674902,
    "name": "StandardAero Business Aviation Services LLC"
  },
  {
    "bureauId": "165808AAA",
    "agencySiteId": 170000145402,
    "lat": 37.629928,
    "lon": -88.405143,
    "name": "Illinois Fuel Co LLC"
  },
  {
    "bureauId": "115050AAI",
    "agencySiteId": 170000120857,
    "lat": 39.933339,
    "lon": -89.076484,
    "name": "Crown Cork & Seal Co Inc"
  },
  {
    "bureauId": "097075AAS",
    "agencySiteId": 170000100842,
    "lat": 42.276913,
    "lon": -87.871971,
    "name": "Liquid Controls Corp"
  },
  {
    "bureauId": "109802AAB",
    "agencySiteId": 170000112982,
    "lat": 40.550463,
    "lon": -90.518745,
    "name": "TriOak Foods Inc"
  },
  {
    "bureauId": "143065ANR",
    "agencySiteId": 170000134030,
    "lat": 40.658833,
    "lon": -89.698019,
    "name": "Illinois Air National Guard"
  },
  {
    "bureauId": "143801AAB",
    "agencySiteId": 170000135011,
    "lat": 40.856074,
    "lon": -89.929065,
    "name": "Akron Services Inc"
  },
  {
    "bureauId": "161065ABS",
    "agencySiteId": 170000140452,
    "lat": 41.483094,
    "lon": -90.570173,
    "name": "Trinity Medical Center"
  },
  {
    "bureauId": "181005AAC",
    "agencySiteId": 170000151859,
    "lat": 37.371503,
    "lon": -89.244899,
    "name": "Anna Quarries Inc"
  },
  {
    "bureauId": "023015AAD",
    "agencySiteId": 170000008701,
    "lat": 39.332108,
    "lon": -87.884251,
    "name": "Rowe Foundry & Machine Co"
  },
  {
    "bureauId": "031063ADM",
    "agencySiteId": 170000018601,
    "lat": 42.024269,
    "lon": -87.917267,
    "name": "International Paper Co"
  },
  {
    "bureauId": "031600BRA",
    "agencySiteId": 170000043511,
    "lat": 41.718435,
    "lon": -87.546145,
    "name": "Peoples Gas Light & Coke Co"
  },
  {
    "bureauId": "031600FNM",
    "agencySiteId": 170000056944,
    "lat": 41.814093,
    "lon": -87.672752,
    "name": "Cedar Concepts Inc"
  },
  {
    "bureauId": "089800AAH",
    "agencySiteId": 170000095153,
    "lat": 41.732029,
    "lon": -88.366172,
    "name": "VVF Illinois Services LLC"
  },
  {
    "bureauId": "099802AAA",
    "agencySiteId": 170000107079,
    "lat": 41.245904,
    "lon": -88.669372,
    "name": "Exelon LaSalle County Station"
  },
  {
    "bureauId": "107800AAA",
    "agencySiteId": 170000111992,
    "lat": 40.052481,
    "lon": -89.185795,
    "name": "Farmers Grain Co of Central IL"
  },
  {
    "bureauId": "197811AAA",
    "agencySiteId": 170000163203,
    "lat": 41.412232,
    "lon": -87.988353,
    "name": "BP Pipelines North America Inc"
  },
  {
    "bureauId": "201030ACI",
    "agencySiteId": 170000165540,
    "lat": 42.298799,
    "lon": -89.073606,
    "name": "Ingersoll Machine Tools"
  },
  {
    "bureauId": "201030BCG",
    "agencySiteId": 170000168208,
    "lat": 42.239584,
    "lon": -89.102055,
    "name": "NRG Rockford Energy Center"
  },
  {
    "bureauId": "031012AGV",
    "agencySiteId": 170001603806,
    "lat": 41.758692,
    "lon": -87.787655,
    "name": "Atlantic Press Inc"
  },
  {
    "bureauId": "031174AAD",
    "agencySiteId": 170000025737,
    "lat": 41.803712,
    "lon": -87.852758,
    "name": "Hanson Material Service Yd 19"
  },
  {
    "bureauId": "045808AAM",
    "agencySiteId": 170000078555,
    "lat": 39.602703,
    "lon": -87.715681,
    "name": "Boge North America"
  },
  {
    "bureauId": "073070AAA",
    "agencySiteId": 170000086537,
    "lat": 41.354345,
    "lon": -90.388028,
    "name": "AGH Feed Mill Inc"
  },
  {
    "bureauId": "097185AAL",
    "agencySiteId": 170000102760,
    "lat": 42.280003,
    "lon": -88.144781,
    "name": "Stonecasters LLC"
  },
  {
    "bureauId": "113100AAB",
    "agencySiteId": 170000118003,
    "lat": 40.435147,
    "lon": -89.219502,
    "name": "Stanford Grain Co"
  },
  {
    "bureauId": "157851AAC",
    "agencySiteId": 170000138465,
    "lat": 38.196249,
    "lon": -89.852903,
    "name": "US Minerals Inc"
  },
  {
    "bureauId": "163020AAB",
    "agencySiteId": 170000142502,
    "lat": 38.582080,
    "lon": -90.188103,
    "name": "Phillips 66 Pipeline LLC"
  },
  {
    "bureauId": "031231ABC",
    "agencySiteId": 170001422164,
    "lat": 41.629103,
    "lon": -87.893876,
    "name": "E S Cleaners"
  },
  {
    "bureauId": "031600GQS",
    "agencySiteId": 170001591800,
    "lat": 41.789747,
    "lon": -87.682940,
    "name": "Comcast of Illinois Inc"
  },
  {
    "bureauId": "197025AAS",
    "agencySiteId": 170001882648,
    "lat": 41.578146,
    "lon": -88.139148,
    "name": "Rich Products"
  },
  {
    "bureauId": "125804AAO",
    "agencySiteId": 170002021318,
    "lat": 40.277956,
    "lon": -90.080700,
    "name": "River Trading Refined Coal (RTRC) Havana LLC"
  },
  {
    "bureauId": "031600BUF",
    "agencySiteId": 170000044155,
    "lat": 41.856409,
    "lon": -87.737736,
    "name": "Chicago Steel Container Corp"
  },
  {
    "bureauId": "031600FFO",
    "agencySiteId": 170000054982,
    "lat": 41.847074,
    "lon": -87.668795,
    "name": "Metal Management Midwest Inc"
  },
  {
    "bureauId": "031821ABD",
    "agencySiteId": 170000065596,
    "lat": 41.800581,
    "lon": -87.774105,
    "name": "WR Grace & Co"
  },
  {
    "bureauId": "039015AAL",
    "agencySiteId": 170000068316,
    "lat": 40.246227,
    "lon": -88.638650,
    "name": "City Of Farmer City Power Plant"
  },
  {
    "bureauId": "089438ADW",
    "agencySiteId": 170000093994,
    "lat": 42.055856,
    "lon": -88.311480,
    "name": "Printpack Inc"
  },
  {
    "bureauId": "117045AAB",
    "agencySiteId": 170000121491,
    "lat": 39.450803,
    "lon": -89.776577,
    "name": "Thermal Ceramics Inc"
  },
  {
    "bureauId": "119065ABP",
    "agencySiteId": 170000124292,
    "lat": 38.686200,
    "lon": -90.139009,
    "name": "Diamond Plating Co"
  },
  {
    "bureauId": "187801AAE",
    "agencySiteId": 170000155034,
    "lat": 40.946658,
    "lon": -90.458231,
    "name": "Cameron Grain Corp"
  },
  {
    "bureauId": "197075AAK",
    "agencySiteId": 170000160402,
    "lat": 41.328359,
    "lon": -87.785788,
    "name": "Peotone Animal Hospital"
  },
  {
    "bureauId": "063060ACV",
    "agencySiteId": 170000083727,
    "lat": 41.371121,
    "lon": -88.440490,
    "name": "Fred C Dames Funeral Homes Inc"
  },
  {
    "bureauId": "089809AAN",
    "agencySiteId": 170001657570,
    "lat": 42.151814,
    "lon": -88.511788,
    "name": "Poli-Film America Inc"
  },
  {
    "bureauId": "033807AAD",
    "agencySiteId": 170002032404,
    "lat": 39.146026,
    "lon": -87.779071,
    "name": "Annapolis Grain Co"
  },
  {
    "bureauId": "019030AAC",
    "agencySiteId": 170000005688,
    "lat": 40.034566,
    "lon": -87.952158,
    "name": "Bunge Grain Milling Inc"
  },
  {
    "bureauId": "097125ABP",
    "agencySiteId": 170000102378,
    "lat": 42.306682,
    "lon": -87.860538,
    "name": "Captain James A Lovell Federal Health Care Center"
  },
  {
    "bureauId": "099035AAD",
    "agencySiteId": 170000105758,
    "lat": 41.613404,
    "lon": -88.800706,
    "name": "Leland Farmers Co"
  },
  {
    "bureauId": "141817AAQ",
    "agencySiteId": 170000132782,
    "lat": 41.998330,
    "lon": -89.314905,
    "name": "E.D. Etnyre & Co"
  },
  {
    "bureauId": "195040AAF",
    "agencySiteId": 170000171720,
    "lat": 41.670327,
    "lon": -89.940851,
    "name": "Tyco Valves and Controls LP"
  },
  {
    "bureauId": "031084AAR",
    "agencySiteId": 170000020778,
    "lat": 41.707399,
    "lon": -87.701800,
    "name": "Florida Plastics International Inc"
  },
  {
    "bureauId": "031165ABH",
    "agencySiteId": 170000025470,
    "lat": 41.998701,
    "lon": -87.725859,
    "name": "Nylok Fastener Corp"
  },
  {
    "bureauId": "031600GCH",
    "agencySiteId": 170000060779,
    "lat": 41.881333,
    "lon": -87.742532,
    "name": "Jonas Enterprises Inc"
  },
  {
    "bureauId": "031012AHG",
    "agencySiteId": 170001970730,
    "lat": 41.760000,
    "lon": -87.758418,
    "name": "Packaging Corporation of America DBA PCA-Chicago Container"
  },
  {
    "bureauId": "031045AAJ",
    "agencySiteId": 170000016202,
    "lat": 41.510392,
    "lon": -87.619303,
    "name": "Gerresheimer Glass Inc"
  },
  {
    "bureauId": "031600BLW",
    "agencySiteId": 170000042923,
    "lat": 41.877364,
    "lon": -87.739884,
    "name": "Specialty Sausage Co LLC"
  },
  {
    "bureauId": "087854AAE",
    "agencySiteId": 170000091157,
    "lat": 37.492751,
    "lon": -88.969471,
    "name": "Southern Illinois Materials Co"
  },
  {
    "bureauId": "117823AAD",
    "agencySiteId": 170000122178,
    "lat": 39.063977,
    "lon": -89.733493,
    "name": "Georgia Pacific Corrugated II LLC"
  },
  {
    "bureauId": "197085AAS",
    "agencySiteId": 170000160625,
    "lat": 41.504801,
    "lon": -88.117959,
    "name": "Russell T Bundy Associates Inc dba Pan Glo Chicago"
  },
  {
    "bureauId": "145005AAA",
    "agencySiteId": 170001427864,
    "lat": 38.000724,
    "lon": -89.532530,
    "name": "Midwest Transload LLC"
  },
  {
    "bureauId": "031288AJU",
    "agencySiteId": 170001436792,
    "lat": 42.041127,
    "lon": -87.713589,
    "name": "Kenny The Kleener"
  },
  {
    "bureauId": "091055AEU",
    "agencySiteId": 170001631063,
    "lat": 41.053297,
    "lon": -87.901103,
    "name": "Kankakee Renewable Energy LLC"
  },
  {
    "bureauId": "089438AHE",
    "agencySiteId": 170001804643,
    "lat": 42.012627,
    "lon": -88.314817,
    "name": "College Green Cleaners"
  },
  {
    "bureauId": "031600GXV",
    "agencySiteId": 170001897384,
    "lat": 41.966056,
    "lon": -87.918281,
    "name": "Walsh Construction Corp/Terrell Materials Corp"
  },
  {
    "bureauId": "041804AAF",
    "agencySiteId": 170001988295,
    "lat": 39.791694,
    "lon": -88.326706,
    "name": "Cronus Chemicals LLC"
  },
  {
    "bureauId": "043030AFF",
    "agencySiteId": 170000238464,
    "lat": 41.791565,
    "lon": -88.055776,
    "name": "Valid USA Inc"
  },
  {
    "bureauId": "021060ABO",
    "agencySiteId": 170000008051,
    "lat": 39.559776,
    "lon": -89.307389,
    "name": "Presnell Bros Inc"
  },
  {
    "bureauId": "031600ACI",
    "agencySiteId": 170000040747,
    "lat": 41.808522,
    "lon": -87.651251,
    "name": "Archer Tinning And Re-tinning"
  },
  {
    "bureauId": "031600ATQ",
    "agencySiteId": 170000041755,
    "lat": 41.928259,
    "lon": -87.730108,
    "name": "Stewarts Private Blend Foods Inc"
  },
  {
    "bureauId": "031600CEZ",
    "agencySiteId": 170000044994,
    "lat": 41.917251,
    "lon": -87.793459,
    "name": "Mars Chocolate North America LLC"
  },
  {
    "bureauId": "043090ACA",
    "agencySiteId": 170000074522,
    "lat": 41.906428,
    "lon": -88.233173,
    "name": "Blachford Inc"
  },
  {
    "bureauId": "099050AAK",
    "agencySiteId": 170000105829,
    "lat": 41.321663,
    "lon": -88.685673,
    "name": "Glen-Gery Corp"
  },
  {
    "bureauId": "061806AAC",
    "agencySiteId": 170000083184,
    "lat": 39.327454,
    "lon": -90.211474,
    "name": "Hog Inc"
  },
  {
    "bureauId": "031600GQX",
    "agencySiteId": 170001600024,
    "lat": 41.787390,
    "lon": -87.742292,
    "name": "Skyline Management Group"
  },
  {
    "bureauId": "197420AAI",
    "agencySiteId": 170001611325,
    "lat": 41.441014,
    "lon": -88.204195,
    "name": "Ferrellgas LP"
  },
  {
    "bureauId": "099085AAS",
    "agencySiteId": 170000106356,
    "lat": 41.323813,
    "lon": -89.110872,
    "name": "ADM Terminal Services"
  },
  {
    "bureauId": "105030AAA",
    "agencySiteId": 170000110010,
    "lat": 40.969897,
    "lon": -88.355645,
    "name": "Trainor Grain"
  },
  {
    "bureauId": "113090AAY",
    "agencySiteId": 170001419579,
    "lat": 40.504887,
    "lon": -89.040156,
    "name": "Vuteq USA"
  },
  {
    "bureauId": "141811AAD",
    "agencySiteId": 170000132586,
    "lat": 42.009914,
    "lon": -89.041283,
    "name": "Maplehurst Farms"
  },
  {
    "bureauId": "197045AIF",
    "agencySiteId": 170000159165,
    "lat": 41.537772,
    "lon": -88.094792,
    "name": "Pohlers Industrial Electric Service"
  },
  {
    "bureauId": "197800AAM",
    "agencySiteId": 170000161508,
    "lat": 41.413541,
    "lon": -88.196661,
    "name": "Styrolution America LLC"
  },
  {
    "bureauId": "007801AAC",
    "agencySiteId": 170000002574,
    "lat": 42.244270,
    "lon": -88.726440,
    "name": "The Delong Co Inc d/b/a Delco Elevators"
  },
  {
    "bureauId": "031114AAF",
    "agencySiteId": 170000023659,
    "lat": 41.964179,
    "lon": -87.810731,
    "name": "Carstens Inc"
  },
  {
    "bureauId": "031600CUQ",
    "agencySiteId": 170000046867,
    "lat": 41.858032,
    "lon": -87.734456,
    "name": "Empire Hard Chrome"
  },
  {
    "bureauId": "099825AAG",
    "agencySiteId": 170000107792,
    "lat": 41.328911,
    "lon": -88.878575,
    "name": "Pilkington North America Inc"
  },
  {
    "bureauId": "141811AAC",
    "agencySiteId": 170000132577,
    "lat": 42.053147,
    "lon": -89.034199,
    "name": "Maplehurst Farms"
  },
  {
    "bureauId": "143075AAL",
    "agencySiteId": 170000134931,
    "lat": 40.923711,
    "lon": -89.759666,
    "name": "Seneca Foods Corp"
  },
  {
    "bureauId": "191899AAA",
    "agencySiteId": 170000156211,
    "lat": 38.381558,
    "lon": -88.445249,
    "name": "Wayne Co Landfill Inc"
  },
  {
    "bureauId": "115812AAF",
    "agencySiteId": 170001422048,
    "lat": 39.859990,
    "lon": -88.778875,
    "name": "Almost Home"
  },
  {
    "bureauId": "073040AAE",
    "agencySiteId": 170001422299,
    "lat": 41.483963,
    "lon": -90.341060,
    "name": "Rock River Arms Inc"
  },
  {
    "bureauId": "199055ACI",
    "agencySiteId": 170001427739,
    "lat": 37.735573,
    "lon": -88.946945,
    "name": "Perma-Treat of Illinois Inc"
  },
  {
    "bureauId": "097125ABV",
    "agencySiteId": 170001555458,
    "lat": 42.332192,
    "lon": -87.836771,
    "name": "AbbVie Inc"
  },
  {
    "bureauId": "053010AAX",
    "agencySiteId": 170002027456,
    "lat": 40.466866,
    "lon": -88.376338,
    "name": "Speciality Grains Inc"
  },
  {
    "bureauId": "121045ABL",
    "agencySiteId": 170000126263,
    "lat": 38.609019,
    "lon": -88.940660,
    "name": "Kranos Corporation d/b/a Schutt Sports"
  },
  {
    "bureauId": "201030BBG",
    "agencySiteId": 170000167940,
    "lat": 42.247501,
    "lon": -88.998504,
    "name": "Fitzgerald & Associates Funeral Home"
  },
  {
    "bureauId": "143065AXN",
    "agencySiteId": 170000134744,
    "lat": 40.770654,
    "lon": -89.568645,
    "name": "Consolidated Paving Inc"
  },
  {
    "bureauId": "163010AFL",
    "agencySiteId": 170000142469,
    "lat": 38.528872,
    "lon": -89.968276,
    "name": "Quality Plating Works"
  },
  {
    "bureauId": "099085ABS",
    "agencySiteId": 170000106551,
    "lat": 41.372514,
    "lon": -89.138584,
    "name": "James Hardie Building Products Inc"
  },
  {
    "bureauId": "173807AAG",
    "agencySiteId": 170000148631,
    "lat": 39.223939,
    "lon": -88.759249,
    "name": "Holland Energy LLC"
  },
  {
    "bureauId": "015015AAC",
    "agencySiteId": 170000004135,
    "lat": 41.962337,
    "lon": -89.777078,
    "name": "Milledgeville Farmers Elevator Co"
  },
  {
    "bureauId": "031600DRU",
    "agencySiteId": 170000049775,
    "lat": 41.885143,
    "lon": -87.621452,
    "name": "Piedmont-Chicago Center Owner LLC"
  },
  {
    "bureauId": "067010AAA",
    "agencySiteId": 170000084664,
    "lat": 40.328945,
    "lon": -91.195044,
    "name": "Basco Elevator Ltd"
  },
  {
    "bureauId": "089483ABY",
    "agencySiteId": 170000094822,
    "lat": 41.915964,
    "lon": -88.319515,
    "name": "Met-co Industries"
  },
  {
    "bureauId": "113020AED",
    "agencySiteId": 170000116988,
    "lat": 40.477244,
    "lon": -88.955325,
    "name": "St Joseph Medical Center"
  },
  {
    "bureauId": "163100AAM",
    "agencySiteId": 170000143770,
    "lat": 38.640241,
    "lon": -90.141309,
    "name": "National City Recycling LLC"
  },
  {
    "bureauId": "157045AAP",
    "agencySiteId": 170000138189,
    "lat": 38.197951,
    "lon": -89.997108,
    "name": "G & S Foundry & Mfg"
  },
  {
    "bureauId": "101015AAT",
    "agencySiteId": 170000108452,
    "lat": 38.720126,
    "lon": -87.630044,
    "name": "Automotive Technology Systems"
  },
  {
    "bureauId": "077005AAE",
    "agencySiteId": 170000088456,
    "lat": 37.930451,
    "lon": -89.421191,
    "name": "Knight Hawk Coal"
  },
  {
    "bureauId": "097175AAN",
    "agencySiteId": 170001868897,
    "lat": 42.216684,
    "lon": -87.949854,
    "name": "Probat Burns"
  },
  {
    "bureauId": "065803AAB",
    "agencySiteId": 170001906935,
    "lat": 38.232000,
    "lon": -88.537000,
    "name": "Miller Contracting Services Inc"
  },
  {
    "bureauId": "155010AAL",
    "agencySiteId": 170001916381,
    "lat": 41.275326,
    "lon": -89.331227,
    "name": "Marquis Inc"
  },
  {
    "bureauId": "031096ACP",
    "agencySiteId": 170000021456,
    "lat": 41.943130,
    "lon": -87.911264,
    "name": "Wismarq Corp"
  },
  {
    "bureauId": "077806AAA",
    "agencySiteId": 170000089099,
    "lat": 37.658350,
    "lon": -89.511397,
    "name": "Grand Tower Energy Center LLC"
  },
  {
    "bureauId": "137020ACZ",
    "agencySiteId": 170000130481,
    "lat": 39.741337,
    "lon": -90.270022,
    "name": "United Gilsonite Laboratories"
  },
  {
    "bureauId": "137804AAA",
    "agencySiteId": 170000130793,
    "lat": 39.865322,
    "lon": -90.451929,
    "name": "Burrus Seed Farms Inc"
  },
  {
    "bureauId": "157863AAB",
    "agencySiteId": 170000138562,
    "lat": 38.096623,
    "lon": -90.109613,
    "name": "Lafarge West Inc"
  },
  {
    "bureauId": "181852AAA",
    "agencySiteId": 170000151975,
    "lat": 37.470190,
    "lon": -89.234783,
    "name": "ET Simonds Construction Co"
  },
  {
    "bureauId": "097025AAY",
    "agencySiteId": 170001740515,
    "lat": 42.348102,
    "lon": -88.032079,
    "name": "GFX International"
  },
  {
    "bureauId": "031600GWJ",
    "agencySiteId": 170001817274,
    "lat": 41.964708,
    "lon": -87.899643,
    "name": "Midwest REM Enterprises Inc"
  },
  {
    "bureauId": "029800AAF",
    "agencySiteId": 170001828930,
    "lat": 39.502196,
    "lon": -88.014827,
    "name": "Ameren Illinois"
  },
  {
    "bureauId": "197820AAO",
    "agencySiteId": 170000163855,
    "lat": 41.717584,
    "lon": -88.231600,
    "name": "Battery Builders Inc"
  },
  {
    "bureauId": "201030AWP",
    "agencySiteId": 170000166941,
    "lat": 42.306287,
    "lon": -88.992661,
    "name": "Rock Valley College"
  },
  {
    "bureauId": "085809AAG",
    "agencySiteId": 170000090826,
    "lat": 42.454296,
    "lon": -90.514428,
    "name": "Northern Natural Gas Co"
  },
  {
    "bureauId": "111811AAT",
    "agencySiteId": 170000116238,
    "lat": 42.309744,
    "lon": -88.274367,
    "name": "Omni Products Inc"
  },
  {
    "bureauId": "063800AAJ",
    "agencySiteId": 170000083889,
    "lat": 41.413431,
    "lon": -88.329765,
    "name": "Morris Cogeneration LLC"
  },
  {
    "bureauId": "143020ABD",
    "agencySiteId": 170000133228,
    "lat": 40.879363,
    "lon": -89.520181,
    "name": "Chillicothe Metal Co Inc"
  },
  {
    "bureauId": "031126AAC",
    "agencySiteId": 170000024186,
    "lat": 41.774154,
    "lon": -87.855647,
    "name": "Central Blacktop Co Inc"
  },
  {
    "bureauId": "031600FMR",
    "agencySiteId": 170000056757,
    "lat": 41.763353,
    "lon": -87.723253,
    "name": "WR Grace"
  },
  {
    "bureauId": "031600FNT",
    "agencySiteId": 170000057015,
    "lat": 41.943836,
    "lon": -87.708142,
    "name": "Federal - Mogul Driveline Products"
  },
  {
    "bureauId": "075020AAH",
    "agencySiteId": 170000087224,
    "lat": 40.564050,
    "lon": -87.897037,
    "name": "Cissna Park Coop Inc"
  },
  {
    "bureauId": "091060AAG",
    "agencySiteId": 170000096884,
    "lat": 41.234813,
    "lon": -87.809342,
    "name": "Pactiv LLC"
  },
  {
    "bureauId": "097035AAQ",
    "agencySiteId": 170000100227,
    "lat": 42.383812,
    "lon": -87.899574,
    "name": "Vantage Specialties Inc"
  },
  {
    "bureauId": "049808AAC",
    "agencySiteId": 170000079572,
    "lat": 39.068677,
    "lon": -88.755614,
    "name": "City of Altamont"
  },
  {
    "bureauId": "111815AAD",
    "agencySiteId": 170000116577,
    "lat": 42.206813,
    "lon": -88.616392,
    "name": "Coral Lake Sand & Gravel Inc"
  },
  {
    "bureauId": "161070AAR",
    "agencySiteId": 170000141308,
    "lat": 41.515802,
    "lon": -90.413649,
    "name": "Chrome Locomotive"
  },
  {
    "bureauId": "031030ACZ",
    "agencySiteId": 170000015622,
    "lat": 41.853357,
    "lon": -87.860960,
    "name": "Vanee Food Co"
  },
  {
    "bureauId": "031096AND",
    "agencySiteId": 170000022543,
    "lat": 41.935420,
    "lon": -87.855692,
    "name": "Transilwrap Co"
  },
  {
    "bureauId": "043020ACD",
    "agencySiteId": 170000071099,
    "lat": 41.905437,
    "lon": -88.102767,
    "name": "Metals Technology Corp"
  },
  {
    "bureauId": "103817AAH",
    "agencySiteId": 170000109683,
    "lat": 41.828746,
    "lon": -89.405002,
    "name": "Duke Energy Ohio Inc"
  },
  {
    "bureauId": "031051ABJ",
    "agencySiteId": 170000017309,
    "lat": 41.864242,
    "lon": -87.758257,
    "name": "Kropp Forge"
  },
  {
    "bureauId": "031114AAD",
    "agencySiteId": 170000023640,
    "lat": 41.968191,
    "lon": -87.809528,
    "name": "ITW Switches"
  },
  {
    "bureauId": "031600FMX",
    "agencySiteId": 170000056819,
    "lat": 41.894551,
    "lon": -87.620920,
    "name": "Northwestern Memorial Hospital"
  },
  {
    "bureauId": "041005AAN",
    "agencySiteId": 170000068824,
    "lat": 39.685862,
    "lon": -88.298722,
    "name": "Libman Broom Co"
  },
  {
    "bureauId": "067005AAD",
    "agencySiteId": 170000084646,
    "lat": 40.232878,
    "lon": -90.952259,
    "name": "Safe Petroleum Co"
  },
  {
    "bureauId": "139015AAE",
    "agencySiteId": 170000131168,
    "lat": 39.710957,
    "lon": -88.806306,
    "name": "Heritage Grain Cooperative"
  },
  {
    "bureauId": "143804AAJ",
    "agencySiteId": 170000135119,
    "lat": 40.941704,
    "lon": -89.633739,
    "name": "International Supply Co"
  },
  {
    "bureauId": "197085AAO",
    "agencySiteId": 170000160581,
    "lat": 41.500651,
    "lon": -88.122259,
    "name": "Apollo Colors Inc"
  },
  {
    "bureauId": "183095AAB",
    "agencySiteId": 170000153562,
    "lat": 40.028449,
    "lon": -87.632996,
    "name": "Westville Ready Mix Inc"
  },
  {
    "bureauId": "053010AAW",
    "agencySiteId": 170001635684,
    "lat": 40.468714,
    "lon": -88.395924,
    "name": "One Earth Energy LLC"
  },
  {
    "bureauId": "079010AAX",
    "agencySiteId": 170001725676,
    "lat": 38.991426,
    "lon": -88.150741,
    "name": "EVAPCO Inc"
  },
  {
    "bureauId": "199055ACL",
    "agencySiteId": 170001832293,
    "lat": 37.740876,
    "lon": -88.984822,
    "name": "CNF Holdings Inc"
  },
  {
    "bureauId": "001815AAB",
    "agencySiteId": 170000000950,
    "lat": 39.895116,
    "lon": -91.410351,
    "name": "Prince Minerals Inc"
  },
  {
    "bureauId": "031159AAD",
    "agencySiteId": 170000024907,
    "lat": 41.591934,
    "lon": -87.544796,
    "name": "Hadady Machining Co Inc"
  },
  {
    "bureauId": "049811AAA",
    "agencySiteId": 170000079590,
    "lat": 39.131171,
    "lon": -88.490048,
    "name": "Three Z Printing"
  },
  {
    "bureauId": "109035AAZ",
    "agencySiteId": 170000112786,
    "lat": 40.455561,
    "lon": -90.690231,
    "name": "Royal Haeger Lamp Co West"
  },
  {
    "bureauId": "167120ADP",
    "agencySiteId": 170000145858,
    "lat": 39.804489,
    "lon": -89.657093,
    "name": "Capitol Power Plant"
  },
  {
    "bureauId": "179010AAB",
    "agencySiteId": 170000150048,
    "lat": 40.637058,
    "lon": -89.616800,
    "name": "ADM Terminal Services"
  },
  {
    "bureauId": "069852AAM",
    "agencySiteId": 170001657106,
    "lat": 37.495670,
    "lon": -88.208293,
    "name": "Mid-America Carbonates"
  },
  {
    "bureauId": "117806AAF",
    "agencySiteId": 170001993831,
    "lat": 39.315831,
    "lon": -89.875482,
    "name": "M&M Service Company"
  },
  {
    "bureauId": "189801AAA",
    "agencySiteId": 170000155481,
    "lat": 38.366750,
    "lon": -89.362583,
    "name": "Nascote Industries Inc"
  },
  {
    "bureauId": "105821AAO",
    "agencySiteId": 170000111233,
    "lat": 40.928423,
    "lon": -88.654963,
    "name": "Livingston Landfill"
  },
  {
    "bureauId": "201030BBM",
    "agencySiteId": 170000168002,
    "lat": 42.229715,
    "lon": -89.026865,
    "name": "HLS Rockford LLC"
  },
  {
    "bureauId": "099825AAL",
    "agencySiteId": 170000107845,
    "lat": 41.343724,
    "lon": -88.902778,
    "name": "RTC Ottawa Landfill Gas To Energy Plant"
  },
  {
    "bureauId": "197090ABF",
    "agencySiteId": 170001431207,
    "lat": 41.642514,
    "lon": -88.056193,
    "name": "Linde Gas North America LLC"
  },
  {
    "bureauId": "031600GOZ",
    "agencySiteId": 170000501320,
    "lat": 41.933406,
    "lon": -87.644522,
    "name": "Cleaners Depot"
  },
  {
    "bureauId": "031600CAR",
    "agencySiteId": 170000044495,
    "lat": 41.835243,
    "lon": -87.690453,
    "name": "Ameropan Oil Corp"
  },
  {
    "bureauId": "031804AAI",
    "agencySiteId": 170000064196,
    "lat": 42.027484,
    "lon": -87.959883,
    "name": "West Shore Pipeline Co"
  },
  {
    "bureauId": "111813AAE",
    "agencySiteId": 170000116354,
    "lat": 42.275293,
    "lon": -88.291086,
    "name": "TC Industries Inc"
  },
  {
    "bureauId": "115015AAE",
    "agencySiteId": 170000119226,
    "lat": 39.866936,
    "lon": -88.885076,
    "name": "Archer Daniels Midland Co"
  },
  {
    "bureauId": "125010AAA",
    "agencySiteId": 170000127468,
    "lat": 40.231806,
    "lon": -89.846415,
    "name": "Farmers Elevator Co of Biggs & Easton"
  },
  {
    "bureauId": "189040AAD",
    "agencySiteId": 170000155427,
    "lat": 38.423610,
    "lon": -89.552290,
    "name": "Top Ag Cooperative Inc"
  },
  {
    "bureauId": "141811AAE",
    "agencySiteId": 170000132595,
    "lat": 42.052482,
    "lon": -89.029062,
    "name": "Swenson Spreader Co"
  },
  {
    "bureauId": "197800ABL",
    "agencySiteId": 170000161713,
    "lat": 41.434649,
    "lon": -88.195000,
    "name": "Illinois Marine Towing Inc"
  },
  {
    "bureauId": "119090AAI",
    "agencySiteId": 170000124489,
    "lat": 38.827218,
    "lon": -90.016304,
    "name": "Roxana Resource Recovery LLC"
  },
  {
    "bureauId": "123803AAM",
    "agencySiteId": 170000127351,
    "lat": 41.145724,
    "lon": -89.349474,
    "name": "Oltman & Sons Inc"
  },
  {
    "bureauId": "097080AAX",
    "agencySiteId": 170000101075,
    "lat": 42.274259,
    "lon": -87.901347,
    "name": "Eriem Surgical Inc"
  },
  {
    "bureauId": "081030ACZ",
    "agencySiteId": 170000089801,
    "lat": 38.317049,
    "lon": -88.924857,
    "name": "Off Broadway Dry Cleaners"
  },
  {
    "bureauId": "019085AAC",
    "agencySiteId": 170000006268,
    "lat": 40.022783,
    "lon": -88.075340,
    "name": "Premier Coop"
  },
  {
    "bureauId": "023005AAC",
    "agencySiteId": 170000008578,
    "lat": 39.296167,
    "lon": -88.001234,
    "name": "Casey Fertilizer"
  },
  {
    "bureauId": "031063ABJ",
    "agencySiteId": 170000018460,
    "lat": 42.017627,
    "lon": -87.919006,
    "name": "DeLaval Manufacturing"
  },
  {
    "bureauId": "031600CDN",
    "agencySiteId": 170000044770,
    "lat": 41.841893,
    "lon": -87.646052,
    "name": "Engineered Glass Products LLC"
  },
  {
    "bureauId": "043050ABB",
    "agencySiteId": 170000072873,
    "lat": 41.982376,
    "lon": -88.026537,
    "name": "Givaudan Flavors Corp"
  },
  {
    "bureauId": "043115AAA",
    "agencySiteId": 170000075344,
    "lat": 41.875009,
    "lon": -88.154770,
    "name": "Central Dupage Hospital"
  },
  {
    "bureauId": "037487AAD",
    "agencySiteId": 170001622876,
    "lat": 41.633541,
    "lon": -88.683915,
    "name": "Duro Cast Inc"
  },
  {
    "bureauId": "031600GCV",
    "agencySiteId": 170000060911,
    "lat": 41.985366,
    "lon": -87.883946,
    "name": "Budget Rent A Car System Inc"
  },
  {
    "bureauId": "119465AAC",
    "agencySiteId": 170000125111,
    "lat": 38.672900,
    "lon": -90.145253,
    "name": "Mid-Continent Coal Coke Co"
  },
  {
    "bureauId": "089425AAF",
    "agencySiteId": 170001427793,
    "lat": 42.104896,
    "lon": -88.284337,
    "name": "Golden Bag Co Inc"
  },
  {
    "bureauId": "161015AAA",
    "agencySiteId": 170001573072,
    "lat": 41.744632,
    "lon": -90.290885,
    "name": "Plains LPG"
  },
  {
    "bureauId": "031412AAQ",
    "agencySiteId": 170001582516,
    "lat": 41.996028,
    "lon": -88.196075,
    "name": "Green Cleaners"
  },
  {
    "bureauId": "097035ABW",
    "agencySiteId": 170001609588,
    "lat": 42.370363,
    "lon": -87.945741,
    "name": "Actavis Inc"
  },
  {
    "bureauId": "103025AAA",
    "agencySiteId": 170000109120,
    "lat": 41.842059,
    "lon": -89.297268,
    "name": "Consolidated Grain & Barge Co"
  },
  {
    "bureauId": "105813AAC",
    "agencySiteId": 170000110984,
    "lat": 41.006072,
    "lon": -88.891075,
    "name": "Graymont Cooperative Association"
  },
  {
    "bureauId": "187015AAG",
    "agencySiteId": 170000154758,
    "lat": 40.903996,
    "lon": -90.655175,
    "name": "Wells Pet Food Corp"
  },
  {
    "bureauId": "197820AAE",
    "agencySiteId": 170000163800,
    "lat": 41.670130,
    "lon": -88.246967,
    "name": "Metro Animal Service"
  },
  {
    "bureauId": "089803AAG",
    "agencySiteId": 170000095527,
    "lat": 41.884128,
    "lon": -88.393277,
    "name": "Radco Industries"
  },
  {
    "bureauId": "063005AAA",
    "agencySiteId": 170000083264,
    "lat": 41.244532,
    "lon": -88.284262,
    "name": "Shopwerks"
  },
  {
    "bureauId": "063806AAA",
    "agencySiteId": 170000084012,
    "lat": 41.388881,
    "lon": -88.301164,
    "name": "Reichhold Inc"
  },
  {
    "bureauId": "097809AAB",
    "agencySiteId": 170000104893,
    "lat": 42.281893,
    "lon": -87.893272,
    "name": "Peter Baker & Son Co"
  },
  {
    "bureauId": "099085ABB",
    "agencySiteId": 170000106392,
    "lat": 41.323335,
    "lon": -89.113984,
    "name": "Consolidated Grain And Barge"
  },
  {
    "bureauId": "115040AAA",
    "agencySiteId": 170000120777,
    "lat": 39.853162,
    "lon": -89.165219,
    "name": "ADM Grain Co"
  },
  {
    "bureauId": "119040AAT",
    "agencySiteId": 170000123140,
    "lat": 38.699590,
    "lon": -90.162009,
    "name": "American Colloid Co"
  },
  {
    "bureauId": "167120AHF",
    "agencySiteId": 170000145910,
    "lat": 39.804700,
    "lon": -89.629199,
    "name": "Capital Ready Mix"
  },
  {
    "bureauId": "089809AAK",
    "agencySiteId": 170000095830,
    "lat": 42.105205,
    "lon": -88.544087,
    "name": "Demeter LP"
  },
  {
    "bureauId": "043429AAB",
    "agencySiteId": 170001396941,
    "lat": 41.695441,
    "lon": -88.027261,
    "name": "Champion Packaging & Dist Inc"
  },
  {
    "bureauId": "031285AEN",
    "agencySiteId": 170000477865,
    "lat": 41.954758,
    "lon": -87.873284,
    "name": "Edens Cemetery"
  },
  {
    "bureauId": "031096AOB",
    "agencySiteId": 170000454489,
    "lat": 41.942380,
    "lon": -87.902564,
    "name": "Prairie State Group"
  },
  {
    "bureauId": "031479AAD",
    "agencySiteId": 170001907612,
    "lat": 41.492084,
    "lon": -87.587189,
    "name": "Winpak Portion Packaging"
  },
  {
    "bureauId": "197075AAA",
    "agencySiteId": 170000160368,
    "lat": 41.338065,
    "lon": -87.789281,
    "name": "Cleveland Steel Container Corp"
  },
  {
    "bureauId": "103020ACB",
    "agencySiteId": 170000109022,
    "lat": 41.835384,
    "lon": -89.460066,
    "name": "Anchor Coupling Co"
  },
  {
    "bureauId": "157010AAS",
    "agencySiteId": 170000138045,
    "lat": 37.923772,
    "lon": -89.842507,
    "name": "Gilster Mary-Lee Corp"
  },
  {
    "bureauId": "121802AAK",
    "agencySiteId": 170000126735,
    "lat": 38.494591,
    "lon": -89.138805,
    "name": "Graphic Packaging International Inc"
  },
  {
    "bureauId": "101802AAF",
    "agencySiteId": 170000108559,
    "lat": 38.711125,
    "lon": -87.804081,
    "name": "Sumner Landfill"
  },
  {
    "bureauId": "031003ADP",
    "agencySiteId": 170000012108,
    "lat": 41.661534,
    "lon": -87.711950,
    "name": "Daubert Cromwell LLC"
  },
  {
    "bureauId": "031030ABQ",
    "agencySiteId": 170000015356,
    "lat": 41.858416,
    "lon": -87.866755,
    "name": "Lithographic Industries"
  },
  {
    "bureauId": "031600FGF",
    "agencySiteId": 170000055142,
    "lat": 41.871077,
    "lon": -87.677876,
    "name": "Veterans Administration"
  },
  {
    "bureauId": "089005ABB",
    "agencySiteId": 170000091282,
    "lat": 41.753460,
    "lon": -88.331900,
    "name": "Henry Pratt Co"
  },
  {
    "bureauId": "093010AAB",
    "agencySiteId": 170000098043,
    "lat": 41.539457,
    "lon": -88.584088,
    "name": "Elburn Cooperative Co"
  },
  {
    "bureauId": "197045ACK",
    "agencySiteId": 170000158816,
    "lat": 41.536651,
    "lon": -88.052358,
    "name": "Silver Cross Hospital"
  },
  {
    "bureauId": "089438AFL",
    "agencySiteId": 170000094298,
    "lat": 42.057616,
    "lon": -88.317180,
    "name": "Multifilm Packaging Corp"
  },
  {
    "bureauId": "043005ANE",
    "agencySiteId": 170001717024,
    "lat": 41.913990,
    "lon": -87.996761,
    "name": "Versatile Inks"
  },
  {
    "bureauId": "015030AAE",
    "agencySiteId": 170001774578,
    "lat": 42.157917,
    "lon": -89.736758,
    "name": "Eastland Feed & Grain Inc"
  },
  {
    "bureauId": "001065AGV",
    "agencySiteId": 170001820787,
    "lat": 39.954526,
    "lon": -91.353734,
    "name": "Rack Builders Inc"
  },
  {
    "bureauId": "145835AAG",
    "agencySiteId": 170001842442,
    "lat": 38.132580,
    "lon": -89.465088,
    "name": "Lost Prairie Mine"
  },
  {
    "bureauId": "201802AAE",
    "agencySiteId": 170000168976,
    "lat": 42.377766,
    "lon": -89.286012,
    "name": "William Charles Const Co LLC Materials Div"
  },
  {
    "bureauId": "089080AAS",
    "agencySiteId": 170000093217,
    "lat": 42.001047,
    "lon": -88.301878,
    "name": "Custom Aluminum Products Inc"
  },
  {
    "bureauId": "111813AAR",
    "agencySiteId": 170000116443,
    "lat": 42.265232,
    "lon": -88.242994,
    "name": "Nicor/Horizon Interconnect"
  },
  {
    "bureauId": "031600GMW",
    "agencySiteId": 170000063525,
    "lat": 41.819813,
    "lon": -87.729000,
    "name": "Sprint-Chicago Switch"
  },
  {
    "bureauId": "097090ACN",
    "agencySiteId": 170001570093,
    "lat": 42.301207,
    "lon": -88.010469,
    "name": "Zeller Plastik Inc"
  },
  {
    "bureauId": "089438AGX",
    "agencySiteId": 170001570725,
    "lat": 42.028258,
    "lon": -88.299436,
    "name": "Bazos 1 Hour Inc"
  },
  {
    "bureauId": "031030ACP",
    "agencySiteId": 170000015524,
    "lat": 41.864711,
    "lon": -87.867160,
    "name": "BL Downey Co LLC"
  },
  {
    "bureauId": "031474AAN",
    "agencySiteId": 170000040113,
    "lat": 41.493205,
    "lon": -87.677145,
    "name": "Park Crematory"
  },
  {
    "bureauId": "031600FEP",
    "agencySiteId": 170000054740,
    "lat": 41.673995,
    "lon": -87.573845,
    "name": "Liquid Environmental Solutions"
  },
  {
    "bureauId": "089010ACG",
    "agencySiteId": 170000092030,
    "lat": 41.867998,
    "lon": -88.270673,
    "name": "Tegrant Alloyd Brands Inc"
  },
  {
    "bureauId": "097190ADC",
    "agencySiteId": 170000103091,
    "lat": 42.378255,
    "lon": -87.832331,
    "name": "Waukegan Illinois Hosp Co LLC d/b/a Vista Medical Ctr East"
  },
  {
    "bureauId": "105818AAA",
    "agencySiteId": 170000111064,
    "lat": 40.859143,
    "lon": -88.543358,
    "name": "Nicor Gas"
  },
  {
    "bureauId": "109015AAH",
    "agencySiteId": 170000112492,
    "lat": 40.548740,
    "lon": -90.514029,
    "name": "Bushnell Municipal Electric Light & Power"
  },
  {
    "bureauId": "197816AAB",
    "agencySiteId": 170000163613,
    "lat": 41.243712,
    "lon": -88.229060,
    "name": "Exelon Generation Co LLC"
  },
  {
    "bureauId": "167822ABJ",
    "agencySiteId": 170000147632,
    "lat": 39.862270,
    "lon": -89.604300,
    "name": "Sangamon Valley Landfill Inc"
  },
  {
    "bureauId": "029010ACF",
    "agencySiteId": 170001675088,
    "lat": 39.504987,
    "lon": -88.169368,
    "name": "Diamond Ethanol LLC"
  },
  {
    "bureauId": "057803AAH",
    "agencySiteId": 170001932915,
    "lat": 40.501234,
    "lon": -90.006701,
    "name": "Aventine Renewable Energy-Canton LLC"
  },
  {
    "bureauId": "031102ABI",
    "agencySiteId": 170000022838,
    "lat": 42.093528,
    "lon": -87.851866,
    "name": "Glenbrook Hospital"
  },
  {
    "bureauId": "031288ABL",
    "agencySiteId": 170000033540,
    "lat": 42.020201,
    "lon": -87.717059,
    "name": "Metropolitan Water Reclamation District"
  },
  {
    "bureauId": "031324ACO",
    "agencySiteId": 170000036039,
    "lat": 42.117587,
    "lon": -87.924669,
    "name": "Engineered Polymer Solutions Inc"
  },
  {
    "bureauId": "031440AHP",
    "agencySiteId": 170000038260,
    "lat": 42.000543,
    "lon": -87.968221,
    "name": "Chem-Plate Industries"
  },
  {
    "bureauId": "031471AAT",
    "agencySiteId": 170000039884,
    "lat": 41.911937,
    "lon": -87.917666,
    "name": "International Paper Co"
  },
  {
    "bureauId": "039808AAB",
    "agencySiteId": 170000068717,
    "lat": 40.137677,
    "lon": -88.937780,
    "name": "Stericycle Inc"
  },
  {
    "bureauId": "089055AAK",
    "agencySiteId": 170000092860,
    "lat": 41.732879,
    "lon": -88.350572,
    "name": "International Paper Co"
  },
  {
    "bureauId": "125808AAA",
    "agencySiteId": 170000127949,
    "lat": 40.192200,
    "lon": -89.697800,
    "name": "Darling National LLC Subsidiary of Darling International Inc"
  },
  {
    "bureauId": "127855AAC",
    "agencySiteId": 170000128298,
    "lat": 37.209396,
    "lon": -88.858709,
    "name": "Electric Energy Inc"
  },
  {
    "bureauId": "197030AAO",
    "agencySiteId": 170000158497,
    "lat": 41.429243,
    "lon": -87.618883,
    "name": "Crete Energy Park"
  },
  {
    "bureauId": "031600GWS",
    "agencySiteId": 170001837118,
    "lat": 41.697981,
    "lon": -87.556407,
    "name": "Asphalt Operating Services-Chicago"
  },
  {
    "bureauId": "099090AAE",
    "agencySiteId": 170001874069,
    "lat": 41.158406,
    "lon": -88.648600,
    "name": "River Redi Mix Inc"
  },
  {
    "bureauId": "001806AAB",
    "agencySiteId": 170000000656,
    "lat": 39.948346,
    "lon": -91.369849,
    "name": "Titan Wheel Corp of Illinois"
  },
  {
    "bureauId": "031093AAE",
    "agencySiteId": 170000021054,
    "lat": 41.801642,
    "lon": -87.795556,
    "name": "West Shore Pipe Line Co"
  },
  {
    "bureauId": "043030AED",
    "agencySiteId": 170000071669,
    "lat": 41.822994,
    "lon": -88.026367,
    "name": "Illinois State Toll highway Authority, Maintenance Bldg 14"
  },
  {
    "bureauId": "043807AAJ",
    "agencySiteId": 170000077887,
    "lat": 41.871018,
    "lon": -88.227572,
    "name": "Subco Packaging Inc"
  },
  {
    "bureauId": "097080AAJ",
    "agencySiteId": 170000100940,
    "lat": 42.255400,
    "lon": -87.841285,
    "name": "Lake City Cleaners Lake Forest LLC"
  },
  {
    "bureauId": "097811AAI",
    "agencySiteId": 170000105188,
    "lat": 42.297301,
    "lon": -87.874794,
    "name": "Curran Contracting Co"
  },
  {
    "bureauId": "043005AMY",
    "agencySiteId": 170000070599,
    "lat": 41.925318,
    "lon": -88.020831,
    "name": "BenchMark Mold Service Holdings Corp"
  },
  {
    "bureauId": "099055ABE",
    "agencySiteId": 170001316163,
    "lat": 41.558992,
    "lon": -89.053384,
    "name": "ADM Fasco Mendota Rail"
  },
  {
    "bureauId": "119010AEH",
    "agencySiteId": 170001671992,
    "lat": 38.880629,
    "lon": -90.138717,
    "name": "SWI Energy LLC"
  },
  {
    "bureauId": "091806AAR",
    "agencySiteId": 170001812581,
    "lat": 41.242214,
    "lon": -87.816975,
    "name": "Dawn Food Products Inc"
  },
  {
    "bureauId": "031403AAW",
    "agencySiteId": 170001890112,
    "lat": 42.142327,
    "lon": -87.997810,
    "name": "Kanzler Landscape Contractor Inc"
  },
  {
    "bureauId": "021816AAN",
    "agencySiteId": 170000008550,
    "lat": 39.562448,
    "lon": -89.371591,
    "name": "Five Oaks Recycling & Disposal Facility"
  },
  {
    "bureauId": "091809AAF",
    "agencySiteId": 170000097838,
    "lat": 41.029742,
    "lon": -87.865940,
    "name": "Kankakee Recycling & Disposal"
  },
  {
    "bureauId": "031096AMM",
    "agencySiteId": 170000022375,
    "lat": 41.921891,
    "lon": -87.864362,
    "name": "Formel Industries Inc"
  },
  {
    "bureauId": "167806AAE",
    "agencySiteId": 170000147142,
    "lat": 39.771248,
    "lon": -89.424390,
    "name": "Buckhart Sand & Gravel Co Inc"
  },
  {
    "bureauId": "043440AHI",
    "agencySiteId": 170000076557,
    "lat": 41.988057,
    "lon": -87.945358,
    "name": "Chicago Circuits Corp"
  },
  {
    "bureauId": "031177AAW",
    "agencySiteId": 170000026237,
    "lat": 41.658504,
    "lon": -88.016038,
    "name": "K-Five Construction Co"
  },
  {
    "bureauId": "111065AAC",
    "agencySiteId": 170000114640,
    "lat": 42.251788,
    "lon": -88.609935,
    "name": "MarengoValve & Foundry LLC"
  },
  {
    "bureauId": "113020ACR",
    "agencySiteId": 170000116791,
    "lat": 40.444786,
    "lon": -89.026878,
    "name": "Nestle USA-Confections & Snack Div Inc"
  },
  {
    "bureauId": "123030AAB",
    "agencySiteId": 170000127182,
    "lat": 41.035576,
    "lon": -89.227422,
    "name": "Farmers Coop Assn"
  },
  {
    "bureauId": "135040ABM",
    "agencySiteId": 170000129625,
    "lat": 39.171094,
    "lon": -89.676580,
    "name": "North American Pipe Corp"
  },
  {
    "bureauId": "139802AAA",
    "agencySiteId": 170000131444,
    "lat": 39.678812,
    "lon": -88.522820,
    "name": "Okaw Farmers Coop Inc"
  },
  {
    "bureauId": "043035ACT",
    "agencySiteId": 170000072061,
    "lat": 41.874729,
    "lon": -87.957350,
    "name": "Allfoam Ind Inc"
  },
  {
    "bureauId": "031051ABM",
    "agencySiteId": 170000017318,
    "lat": 41.836712,
    "lon": -87.761556,
    "name": "UniqueActive LLC"
  },
  {
    "bureauId": "043020ABK",
    "agencySiteId": 170000070900,
    "lat": 41.921854,
    "lon": -88.117210,
    "name": "American Litho Inc"
  },
  {
    "bureauId": "053035AAA",
    "agencySiteId": 170000080739,
    "lat": 40.613109,
    "lon": -88.184706,
    "name": "Trimble Oil Co"
  },
  {
    "bureauId": "097190AAW",
    "agencySiteId": 170000102966,
    "lat": 42.358212,
    "lon": -87.866172,
    "name": "Waukegan Illinois Hospital Co LLC d/b/a Vista Medical Ctr"
  },
  {
    "bureauId": "097809AAD",
    "agencySiteId": 170000104919,
    "lat": 42.301923,
    "lon": -87.896473,
    "name": "Abbott Laboratories"
  },
  {
    "bureauId": "099487AAA",
    "agencySiteId": 170000106784,
    "lat": 41.629281,
    "lon": -88.678758,
    "name": "Imperial Marble Corp"
  },
  {
    "bureauId": "133030AAO",
    "agencySiteId": 170000129126,
    "lat": 38.334662,
    "lon": -90.158912,
    "name": "Waterloo City Light Plant"
  },
  {
    "bureauId": "149808AAB",
    "agencySiteId": 170000137199,
    "lat": 39.701337,
    "lon": -90.738528,
    "name": "JBS United Inc"
  },
  {
    "bureauId": "093025ABC",
    "agencySiteId": 170000098436,
    "lat": 41.630926,
    "lon": -88.445796,
    "name": "GH Haws & Associates"
  },
  {
    "bureauId": "097420AAA",
    "agencySiteId": 170000104367,
    "lat": 42.478249,
    "lon": -88.185587,
    "name": "Payne & Dolan Inc"
  },
  {
    "bureauId": "019065ABP",
    "agencySiteId": 170000006115,
    "lat": 40.307946,
    "lon": -88.151686,
    "name": "BP Dry-Cleaning Inc"
  },
  {
    "bureauId": "019802AAX",
    "agencySiteId": 170001626970,
    "lat": 40.110987,
    "lon": -88.312877,
    "name": "Staley Concrete Co Inc"
  },
  {
    "bureauId": "031600ADP",
    "agencySiteId": 170000040872,
    "lat": 41.903429,
    "lon": -87.739497,
    "name": "Allied Metal Co"
  },
  {
    "bureauId": "031600AHU",
    "agencySiteId": 170000041158,
    "lat": 41.982118,
    "lon": -87.762359,
    "name": "Switchcraft Inc"
  },
  {
    "bureauId": "031600FES",
    "agencySiteId": 170000054777,
    "lat": 41.704225,
    "lon": -87.548145,
    "name": "Geo J Beemsterboer Co Inc"
  },
  {
    "bureauId": "043800AAI",
    "agencySiteId": 170000077208,
    "lat": 41.972629,
    "lon": -87.970767,
    "name": "St Francis Pet Crematory"
  },
  {
    "bureauId": "075802AAC",
    "agencySiteId": 170000087885,
    "lat": 40.862544,
    "lon": -87.865738,
    "name": "Growmark Inc-Ashkum Terminal"
  },
  {
    "bureauId": "107035AAX",
    "agencySiteId": 170000111705,
    "lat": 40.157643,
    "lon": -89.353796,
    "name": "Ardagh Glass Inc"
  },
  {
    "bureauId": "031297ACY",
    "agencySiteId": 170000035049,
    "lat": 41.591605,
    "lon": -87.614045,
    "name": "Gibraltar Chemical Works Inc"
  },
  {
    "bureauId": "031600GIB",
    "agencySiteId": 170000062278,
    "lat": 41.985522,
    "lon": -87.729259,
    "name": "American Labelmark Co"
  },
  {
    "bureauId": "103010AAH",
    "agencySiteId": 170000347827,
    "lat": 41.867956,
    "lon": -89.248262,
    "name": "Monsanto Co"
  },
  {
    "bureauId": "201045ABM",
    "agencySiteId": 170001608570,
    "lat": 42.493870,
    "lon": -89.018031,
    "name": "Bremmer Food Group Inc"
  },
  {
    "bureauId": "163010AFR",
    "agencySiteId": 170001873658,
    "lat": 38.499721,
    "lon": -89.977907,
    "name": "City of Belleville"
  },
  {
    "bureauId": "161045AAE",
    "agencySiteId": 170000139696,
    "lat": 41.508446,
    "lon": -90.532961,
    "name": "John Deere Seeding Group"
  },
  {
    "bureauId": "183804AAA",
    "agencySiteId": 170000153713,
    "lat": 40.125037,
    "lon": -87.587819,
    "name": "Dept of Veterans Affairs Medical Center"
  },
  {
    "bureauId": "201030AZE",
    "agencySiteId": 170000167405,
    "lat": 42.321389,
    "lon": -89.036406,
    "name": "Rockford Silk Screen"
  },
  {
    "bureauId": "141821AAI",
    "agencySiteId": 170000132924,
    "lat": 42.143614,
    "lon": -89.086403,
    "name": "BFI Waste Systems of NA LLC"
  },
  {
    "bureauId": "031045ANL",
    "agencySiteId": 170000016854,
    "lat": 41.501535,
    "lon": -87.621590,
    "name": "Funk Forging Co"
  },
  {
    "bureauId": "141806AAC",
    "agencySiteId": 170000132513,
    "lat": 42.196165,
    "lon": -89.592446,
    "name": "Michael Greenfield"
  },
  {
    "bureauId": "037010AAT",
    "agencySiteId": 170000066782,
    "lat": 41.931449,
    "lon": -88.780988,
    "name": "Northern Illinois University"
  },
  {
    "bureauId": "057010AAD",
    "agencySiteId": 170000081872,
    "lat": 40.660346,
    "lon": -90.438590,
    "name": "Avon Farmers Elevator"
  },
  {
    "bureauId": "157065AAA",
    "agencySiteId": 170000138330,
    "lat": 38.010497,
    "lon": -89.659635,
    "name": "Gilster Mary-Lee Corp"
  },
  {
    "bureauId": "193805AAF",
    "agencySiteId": 170000156676,
    "lat": 38.096702,
    "lon": -88.140012,
    "name": "O'Daniel Trucking Co"
  },
  {
    "bureauId": "109020AAL",
    "agencySiteId": 170000112580,
    "lat": 40.426342,
    "lon": -90.785232,
    "name": "Yetter Manufacturing Co Inc"
  },
  {
    "bureauId": "163010AFE",
    "agencySiteId": 170000142398,
    "lat": 38.513989,
    "lon": -89.975945,
    "name": "One Hour Martinizing"
  },
  {
    "bureauId": "107035ABZ",
    "agencySiteId": 170000111885,
    "lat": 40.141743,
    "lon": -89.346995,
    "name": "Precision Products Inc"
  },
  {
    "bureauId": "093010AAE",
    "agencySiteId": 170001699785,
    "lat": 41.479866,
    "lon": -88.445410,
    "name": "47 Asphalt Co/Subsidiary of K-Five Construction"
  },
  {
    "bureauId": "019801AAH",
    "agencySiteId": 170000006892,
    "lat": 40.319773,
    "lon": -88.456958,
    "name": "Galesville Elevator"
  },
  {
    "bureauId": "031003AAX",
    "agencySiteId": 170000011617,
    "lat": 41.652434,
    "lon": -87.720950,
    "name": "Prestone Products Corporation"
  },
  {
    "bureauId": "067815AAA",
    "agencySiteId": 170000085244,
    "lat": 40.469044,
    "lon": -91.170145,
    "name": "Crop Production Service"
  },
  {
    "bureauId": "115015AJV",
    "agencySiteId": 170000120232,
    "lat": 39.864422,
    "lon": -88.924399,
    "name": "TCCI Manufacturing LLC"
  },
  {
    "bureauId": "121810AAA",
    "agencySiteId": 170000126799,
    "lat": 38.788148,
    "lon": -89.065863,
    "name": "Capline Patoka Station"
  },
  {
    "bureauId": "137867AAA",
    "agencySiteId": 170000131104,
    "lat": 39.591919,
    "lon": -89.980208,
    "name": "Panhandle Eastern Pipeline Co"
  },
  {
    "bureauId": "031600GMB",
    "agencySiteId": 170000063311,
    "lat": 41.712052,
    "lon": -87.643439,
    "name": "Bell Bros 29 Min Cleaners Inc"
  },
  {
    "bureauId": "143065AYC",
    "agencySiteId": 170001419873,
    "lat": 40.739977,
    "lon": -89.667185,
    "name": "Walsh Construction Co of Illinois"
  },
  {
    "bureauId": "121045ABQ",
    "agencySiteId": 170001614947,
    "lat": 38.615755,
    "lon": -89.009975,
    "name": "Midwest Agri-Energy LLC"
  },
  {
    "bureauId": "155800AAE",
    "agencySiteId": 170001663322,
    "lat": 41.289283,
    "lon": -89.196469,
    "name": "Mid-American Growers"
  },
  {
    "bureauId": "197070AAX",
    "agencySiteId": 170001921133,
    "lat": 41.544533,
    "lon": -87.983246,
    "name": "Silver Cross Hospital"
  },
  {
    "bureauId": "157005AAD",
    "agencySiteId": 170002008743,
    "lat": 38.210312,
    "lon": -89.847263,
    "name": "Fuel Additive Project"
  },
  {
    "bureauId": "143065AAU",
    "agencySiteId": 170000133380,
    "lat": 40.698733,
    "lon": -89.618423,
    "name": "Bradley University"
  },
  {
    "bureauId": "143065AGZ",
    "agencySiteId": 170000133567,
    "lat": 40.753047,
    "lon": -89.597908,
    "name": "Proctor Hospital"
  },
  {
    "bureauId": "167120ACK",
    "agencySiteId": 170000145812,
    "lat": 39.804750,
    "lon": -89.644100,
    "name": "St Johns Hospital"
  },
  {
    "bureauId": "031291AAA",
    "agencySiteId": 170000034362,
    "lat": 42.086426,
    "lon": -88.131576,
    "name": "Gas Recovery Services of Illinois Inc"
  },
  {
    "bureauId": "031440AKW",
    "agencySiteId": 170000039072,
    "lat": 42.021209,
    "lon": -87.963731,
    "name": "Metal Impact LLC"
  },
  {
    "bureauId": "123803AAL",
    "agencySiteId": 170000127342,
    "lat": 41.124821,
    "lon": -89.342252,
    "name": "United Suppliers Inc"
  },
  {
    "bureauId": "031294AAQ",
    "agencySiteId": 170000034451,
    "lat": 41.483597,
    "lon": -87.617089,
    "name": "Millers Ready-mix LLC"
  },
  {
    "bureauId": "031600CVR",
    "agencySiteId": 170000047027,
    "lat": 41.947532,
    "lon": -87.740558,
    "name": "Midwestern Rust Proof Inc"
  },
  {
    "bureauId": "103806AAC",
    "agencySiteId": 170000109344,
    "lat": 41.861000,
    "lon": -89.454800,
    "name": "St. Mary's Cement Inc-Dixon Plant"
  },
  {
    "bureauId": "143065API",
    "agencySiteId": 170000134183,
    "lat": 40.708333,
    "lon": -89.561878,
    "name": "Komatsu America Corp"
  },
  {
    "bureauId": "031440AJZ",
    "agencySiteId": 170000038849,
    "lat": 42.004710,
    "lon": -87.952288,
    "name": "Graphic Packaging Intl Inc"
  },
  {
    "bureauId": "111812AAI",
    "agencySiteId": 170000116318,
    "lat": 42.255032,
    "lon": -88.618094,
    "name": "The Delong Co Inc d/b/a Delco Elevators"
  },
  {
    "bureauId": "141803AAF",
    "agencySiteId": 170000132354,
    "lat": 41.935806,
    "lon": -88.961946,
    "name": "Davidson Grain Inc"
  },
  {
    "bureauId": "023816AAE",
    "agencySiteId": 170000009041,
    "lat": 39.402273,
    "lon": -87.662237,
    "name": "Il Dept Transportation"
  },
  {
    "bureauId": "091809AAH",
    "agencySiteId": 170001696573,
    "lat": 41.053297,
    "lon": -87.901103,
    "name": "AENS Kankakee Plt"
  },
  {
    "bureauId": "197445AAJ",
    "agencySiteId": 170001795671,
    "lat": 41.460503,
    "lon": -88.039316,
    "name": "Joliet Asphalt LLC"
  },
  {
    "bureauId": "031045ABT",
    "agencySiteId": 170000016300,
    "lat": 41.500125,
    "lon": -87.627543,
    "name": "Nufarm Americas Inc"
  },
  {
    "bureauId": "117803AAA",
    "agencySiteId": 170000121892,
    "lat": 39.207291,
    "lon": -89.863231,
    "name": "Macoupin Energy LLC"
  },
  {
    "bureauId": "135055AAD",
    "agencySiteId": 170000129830,
    "lat": 39.320350,
    "lon": -89.573392,
    "name": "Sorrells Farm Supply Inc"
  },
  {
    "bureauId": "195045ABH",
    "agencySiteId": 170000157283,
    "lat": 41.767531,
    "lon": -89.673907,
    "name": "City Of Rock Falls"
  },
  {
    "bureauId": "111804AAD",
    "agencySiteId": 170000665545,
    "lat": 42.230333,
    "lon": -88.548691,
    "name": "Bag Makers Inc"
  },
  {
    "bureauId": "135030AAZ",
    "agencySiteId": 170001754108,
    "lat": 39.144324,
    "lon": -89.472077,
    "name": "Hillsboro Energy LLC"
  },
  {
    "bureauId": "031600GVD",
    "agencySiteId": 170000224344,
    "lat": 41.998046,
    "lon": -87.682407,
    "name": "S&K Cleaners"
  },
  {
    "bureauId": "041005AAW",
    "agencySiteId": 170002010507,
    "lat": 39.679078,
    "lon": -88.397967,
    "name": "Simply Amish"
  },
  {
    "bureauId": "197445AAY",
    "agencySiteId": 170002023888,
    "lat": 41.484581,
    "lon": -88.109629,
    "name": "Joliet Bulk Barge & Rail LLC"
  },
  {
    "bureauId": "031015ACC",
    "agencySiteId": 170000014071,
    "lat": 41.877011,
    "lon": -87.867761,
    "name": "Douglas Press Inc"
  },
  {
    "bureauId": "031600AHP",
    "agencySiteId": 170000041149,
    "lat": 41.806056,
    "lon": -87.681102,
    "name": "Fleischmann's Vinegar Co Inc"
  },
  {
    "bureauId": "069855AAB",
    "agencySiteId": 170000085529,
    "lat": 37.439881,
    "lon": -88.315236,
    "name": "Ohio River Dock Corp"
  },
  {
    "bureauId": "081803AAB",
    "agencySiteId": 170000089865,
    "lat": 38.290070,
    "lon": -88.890371,
    "name": "Continental Tire North America"
  },
  {
    "bureauId": "085809AAA",
    "agencySiteId": 170000090773,
    "lat": 42.443146,
    "lon": -90.557628,
    "name": "Rentech Nitrogen LLC"
  },
  {
    "bureauId": "089438AAE",
    "agencySiteId": 170000093814,
    "lat": 42.017896,
    "lon": -88.322531,
    "name": "Elgin Community College"
  },
  {
    "bureauId": "089080ABB",
    "agencySiteId": 170001625212,
    "lat": 41.984488,
    "lon": -88.325350,
    "name": "Thermal Processing Solutions Inc"
  },
  {
    "bureauId": "089425AAH",
    "agencySiteId": 170001656937,
    "lat": 42.089913,
    "lon": -88.246031,
    "name": "S & M-E & J Services Inc d/b/a All Paws Pet Crematory"
  },
  {
    "bureauId": "197477AAA",
    "agencySiteId": 170001791130,
    "lat": 41.454470,
    "lon": -87.738315,
    "name": "Omar Inc"
  },
  {
    "bureauId": "091805AAK",
    "agencySiteId": 170001920777,
    "lat": 41.103599,
    "lon": -88.004148,
    "name": "Eastern Grain Marketing LLC"
  },
  {
    "bureauId": "099825AAH",
    "agencySiteId": 170000107809,
    "lat": 41.381446,
    "lon": -88.828575,
    "name": "MBL (USA) Corp"
  },
  {
    "bureauId": "141801AAB",
    "agencySiteId": 170000132238,
    "lat": 41.945550,
    "lon": -89.579264,
    "name": "Northern Grain Marketing LLC"
  },
  {
    "bureauId": "031177AAU",
    "agencySiteId": 170000026219,
    "lat": 41.589239,
    "lon": -87.709691,
    "name": "Wright Concrete Recycling Inc"
  },
  {
    "bureauId": "031012AFP",
    "agencySiteId": 170000013606,
    "lat": 41.761111,
    "lon": -87.772231,
    "name": "Heligear Acquisition Co dbaNorthstar Aerospace (Chicago) Inc"
  },
  {
    "bureauId": "141050ABK",
    "agencySiteId": 170000132130,
    "lat": 41.921185,
    "lon": -89.060085,
    "name": "Cedar Siding & Lumber Inc"
  },
  {
    "bureauId": "031600GOC",
    "agencySiteId": 170000063847,
    "lat": 41.879665,
    "lon": -87.628930,
    "name": "Citadel LLC"
  },
  {
    "bureauId": "007804AAH",
    "agencySiteId": 170000002672,
    "lat": 42.158642,
    "lon": -88.906629,
    "name": "Charles F Lee & Sons Inc"
  },
  {
    "bureauId": "089010ACE",
    "agencySiteId": 170000092012,
    "lat": 41.858609,
    "lon": -88.280321,
    "name": "Suncast Corp"
  },
  {
    "bureauId": "097125ABI",
    "agencySiteId": 170000102314,
    "lat": 42.320402,
    "lon": -87.847071,
    "name": "Emco Chemical Distributors Inc"
  },
  {
    "bureauId": "125808AAE",
    "agencySiteId": 170000127976,
    "lat": 40.199254,
    "lon": -89.676508,
    "name": "Monsanto Co"
  },
  {
    "bureauId": "161045AII",
    "agencySiteId": 170000140103,
    "lat": 41.492384,
    "lon": -90.495833,
    "name": "Highland Veterinary Hospital PC"
  },
  {
    "bureauId": "201030ABA",
    "agencySiteId": 170000165452,
    "lat": 42.286420,
    "lon": -89.102907,
    "name": "Dean Foods Co"
  },
  {
    "bureauId": "031600GVW",
    "agencySiteId": 170001789544,
    "lat": 41.946242,
    "lon": -87.710357,
    "name": "Progressive Bronze Products LLC"
  },
  {
    "bureauId": "113020AGI",
    "agencySiteId": 170000670717,
    "lat": 40.472793,
    "lon": -88.958289,
    "name": "State Farm Insurance"
  },
  {
    "bureauId": "031600GZV",
    "agencySiteId": 170002036678,
    "lat": 41.894206,
    "lon": -87.618779,
    "name": "Rehabilitation Institute of Chicago"
  },
  {
    "bureauId": "089035ABY",
    "agencySiteId": 170000092708,
    "lat": 41.891298,
    "lon": -88.270975,
    "name": "Geneva Generating Plant"
  },
  {
    "bureauId": "161025ACD",
    "agencySiteId": 170001316074,
    "lat": 41.535231,
    "lon": -90.356780,
    "name": "Cardinal Red-E-Mix"
  },
  {
    "bureauId": "043407AAK",
    "agencySiteId": 170001419926,
    "lat": 41.735228,
    "lon": -88.232295,
    "name": "HB Fuller Construction Products Inc"
  },
  {
    "bureauId": "197065AAN",
    "agencySiteId": 170001617454,
    "lat": 41.411789,
    "lon": -87.749778,
    "name": "Interstate Asphalt LLC"
  },
  {
    "bureauId": "089035ACB",
    "agencySiteId": 170001603021,
    "lat": 41.888148,
    "lon": -88.265474,
    "name": "Fona International"
  },
  {
    "bureauId": "201801AAN",
    "agencySiteId": 170001704733,
    "lat": 42.159080,
    "lon": -89.062710,
    "name": "Winnebago Energy Center LLC"
  },
  {
    "bureauId": "099055ABA",
    "agencySiteId": 170000105972,
    "lat": 41.552102,
    "lon": -89.102485,
    "name": "Minnesota Diversified Products Inc"
  },
  {
    "bureauId": "177020ADA",
    "agencySiteId": 170000149462,
    "lat": 42.291383,
    "lon": -89.617313,
    "name": "Russell Funeral Homes Ltd"
  },
  {
    "bureauId": "163814ABU",
    "agencySiteId": 170000144760,
    "lat": 38.501479,
    "lon": -89.945231,
    "name": "Videojet Technologies Inc"
  },
  {
    "bureauId": "043035AFS",
    "agencySiteId": 170000072310,
    "lat": 41.909524,
    "lon": -87.927985,
    "name": "Elm Lawn Memorial Park"
  },
  {
    "bureauId": "199855AAA",
    "agencySiteId": 170000164630,
    "lat": 37.643810,
    "lon": -88.878767,
    "name": "TEPPCO- Creal Springs Terminal"
  },
  {
    "bureauId": "031440AMH",
    "agencySiteId": 170000039447,
    "lat": 42.009722,
    "lon": -87.952668,
    "name": "Amitron Corp"
  },
  {
    "bureauId": "031600CVS",
    "agencySiteId": 170000047036,
    "lat": 41.887542,
    "lon": -87.669263,
    "name": "Apco Deburring & Polishing Inc"
  },
  {
    "bureauId": "051808AAB",
    "agencySiteId": 170000080169,
    "lat": 39.102213,
    "lon": -88.860062,
    "name": "Natural Gas Pipeline Co"
  },
  {
    "bureauId": "089800AAT",
    "agencySiteId": 170000095215,
    "lat": 41.770059,
    "lon": -88.281271,
    "name": "Rock-Tenn Co"
  },
  {
    "bureauId": "179060ACR",
    "agencySiteId": 170000150949,
    "lat": 40.555339,
    "lon": -89.662904,
    "name": "Aventine Renewable Energy, Inc."
  },
  {
    "bureauId": "031117AAE",
    "agencySiteId": 170000023855,
    "lat": 41.585584,
    "lon": -87.690047,
    "name": "Mi-Jack Products Inc"
  },
  {
    "bureauId": "059020AAC",
    "agencySiteId": 170000082675,
    "lat": 37.691846,
    "lon": -88.135534,
    "name": "River Materials LLC"
  },
  {
    "bureauId": "089438AHA",
    "agencySiteId": 170001716579,
    "lat": 42.022378,
    "lon": -88.313557,
    "name": "Advance Engineering Corp"
  },
  {
    "bureauId": "031307AAE",
    "agencySiteId": 170001717426,
    "lat": 41.767821,
    "lon": -87.832858,
    "name": "Argo Biodiesel Plant"
  },
  {
    "bureauId": "111805AAR",
    "agencySiteId": 170001845485,
    "lat": 42.286479,
    "lon": -88.409462,
    "name": "Catalent Pharma Solutions"
  },
  {
    "bureauId": "097418AAU",
    "agencySiteId": 170000637942,
    "lat": 42.141147,
    "lon": -87.932851,
    "name": "One Hour Cleaners"
  },
  {
    "bureauId": "031174ACI",
    "agencySiteId": 170000026068,
    "lat": 41.796252,
    "lon": -87.853258,
    "name": "Tru Vue Inc"
  },
  {
    "bureauId": "037010ACU",
    "agencySiteId": 170000067022,
    "lat": 41.933189,
    "lon": -88.731387,
    "name": "Cushioneer Inc"
  },
  {
    "bureauId": "031600GJI",
    "agencySiteId": 170000062606,
    "lat": 41.836430,
    "lon": -87.713948,
    "name": "MRC Polymers Inc"
  },
  {
    "bureauId": "043407AAO",
    "agencySiteId": 170001568471,
    "lat": 41.764585,
    "lon": -88.227484,
    "name": "Crown Cork & Seal Co (USA)"
  },
  {
    "bureauId": "031600GRY",
    "agencySiteId": 170001626621,
    "lat": 41.852644,
    "lon": -87.624183,
    "name": "CD One Price Cleaners #12"
  },
  {
    "bureauId": "005025AAA",
    "agencySiteId": 170001706349,
    "lat": 38.901506,
    "lon": -89.344007,
    "name": "Alternative Energy Sources Inc"
  },
  {
    "bureauId": "031129AAK",
    "agencySiteId": 170000024408,
    "lat": 42.070827,
    "lon": -88.138675,
    "name": "Siemens Medical Solutions USA Inc"
  },
  {
    "bureauId": "121492AAA",
    "agencySiteId": 170000126655,
    "lat": 38.490546,
    "lon": -89.141285,
    "name": "DuraTech Corp"
  },
  {
    "bureauId": "031096ANM",
    "agencySiteId": 170000022632,
    "lat": 41.942892,
    "lon": -87.903790,
    "name": "Casting Impregnators Inc"
  },
  {
    "bureauId": "201030BCW",
    "agencySiteId": 170000168360,
    "lat": 42.234778,
    "lon": -89.015599,
    "name": "Bluewater Thermal Solutions-Rockford"
  },
  {
    "bureauId": "161040ABV",
    "agencySiteId": 170001888063,
    "lat": 41.440715,
    "lon": -90.582340,
    "name": "MASS Custom Hauling Inc"
  },
  {
    "bureauId": "065803AAC",
    "agencySiteId": 170001946866,
    "lat": 38.168401,
    "lon": -88.612640,
    "name": "Alliance White Oak Resource Processing LLC"
  },
  {
    "bureauId": "161065AHC",
    "agencySiteId": 170000403588,
    "lat": 41.499682,
    "lon": -90.597486,
    "name": "City of Rock Island WWTP"
  },
  {
    "bureauId": "177811AAB",
    "agencySiteId": 170002011169,
    "lat": 42.448701,
    "lon": -89.478460,
    "name": "Devansoy Inc"
  },
  {
    "bureauId": "011085AAI",
    "agencySiteId": 170000003074,
    "lat": 41.367186,
    "lon": -89.456092,
    "name": "Perry Memorial Hospital"
  },
  {
    "bureauId": "031069AAH",
    "agencySiteId": 170000019762,
    "lat": 41.628925,
    "lon": -87.612046,
    "name": "Caravan Ingredients Co"
  },
  {
    "bureauId": "031600AHI",
    "agencySiteId": 170000041103,
    "lat": 41.711595,
    "lon": -87.546745,
    "name": "KCBX Terminals Co"
  },
  {
    "bureauId": "031600BTT",
    "agencySiteId": 170000044066,
    "lat": 41.858924,
    "lon": -87.639482,
    "name": "General Packaging Products Inc"
  },
  {
    "bureauId": "031600CKM",
    "agencySiteId": 170000045653,
    "lat": 41.720902,
    "lon": -87.591267,
    "name": "MeadWestvaco Packaging Systems LLC"
  },
  {
    "bureauId": "043802AAA",
    "agencySiteId": 170000077315,
    "lat": 41.715031,
    "lon": -87.985660,
    "name": "Argonne National Laboratory"
  },
  {
    "bureauId": "197899AAB",
    "agencySiteId": 170000164015,
    "lat": 41.441234,
    "lon": -87.751846,
    "name": "University Park Energy LLC"
  },
  {
    "bureauId": "163045AGF",
    "agencySiteId": 170000143208,
    "lat": 38.603887,
    "lon": -90.092227,
    "name": "New York Cleaners Inc"
  },
  {
    "bureauId": "041404AAR",
    "agencySiteId": 170000550295,
    "lat": 39.708978,
    "lon": -88.456715,
    "name": "CHI Overhead Doors"
  },
  {
    "bureauId": "091805AAA",
    "agencySiteId": 170000097491,
    "lat": 41.109782,
    "lon": -88.005347,
    "name": "Kankakee Valley Construction Company Inc"
  },
  {
    "bureauId": "105490AAC",
    "agencySiteId": 170000110500,
    "lat": 41.103133,
    "lon": -88.826974,
    "name": "Plymouth Tube Co"
  },
  {
    "bureauId": "143802AAA",
    "agencySiteId": 170000135048,
    "lat": 40.933117,
    "lon": -89.484191,
    "name": "Arc Terminals Holdings LLC"
  },
  {
    "bureauId": "197809ABQ",
    "agencySiteId": 170000162678,
    "lat": 41.507941,
    "lon": -88.138721,
    "name": "Natural Gas Pipeline Co"
  },
  {
    "bureauId": "025811AAA",
    "agencySiteId": 170000009666,
    "lat": 38.631981,
    "lon": -88.697665,
    "name": "ADM Grain Co"
  },
  {
    "bureauId": "197810ABP",
    "agencySiteId": 170000163141,
    "lat": 41.594117,
    "lon": -88.075179,
    "name": "JW Peters & Sons Inc"
  },
  {
    "bureauId": "031600ADY",
    "agencySiteId": 170000040890,
    "lat": 41.705789,
    "lon": -87.543846,
    "name": "Carmeuse Lime Inc"
  },
  {
    "bureauId": "031600DVY",
    "agencySiteId": 170000050129,
    "lat": 41.866787,
    "lon": -87.743659,
    "name": "GAC Kansas-Chicago-Springville Inc"
  },
  {
    "bureauId": "043005AKV",
    "agencySiteId": 170000070063,
    "lat": 41.916023,
    "lon": -87.994306,
    "name": "Overton Gear Corp"
  },
  {
    "bureauId": "043090ABO",
    "agencySiteId": 170000074407,
    "lat": 41.879148,
    "lon": -88.234473,
    "name": "Allied Asphalt Paving Co"
  },
  {
    "bureauId": "045015AAC",
    "agencySiteId": 170000078074,
    "lat": 39.798710,
    "lon": -87.868560,
    "name": "ADM Grain Co"
  },
  {
    "bureauId": "091045AAE",
    "agencySiteId": 170000096367,
    "lat": 41.049481,
    "lon": -88.096757,
    "name": "Herscher Grain Co"
  },
  {
    "bureauId": "043462AAA",
    "agencySiteId": 170001574516,
    "lat": 41.702902,
    "lon": -88.019534,
    "name": "RR Donnelley"
  },
  {
    "bureauId": "031600GXS",
    "agencySiteId": 170001883941,
    "lat": 41.885399,
    "lon": -87.693591,
    "name": "Ravenswood BioFuels Pilot Plant"
  },
  {
    "bureauId": "111075AAH",
    "agencySiteId": 170000114800,
    "lat": 42.483779,
    "lon": -88.308492,
    "name": "Olsun Electrics Corp"
  },
  {
    "bureauId": "191045AAF",
    "agencySiteId": 170000155882,
    "lat": 38.347091,
    "lon": -88.586167,
    "name": "Consolidated Grain & Barge Co"
  },
  {
    "bureauId": "201030AZB",
    "agencySiteId": 170000167370,
    "lat": 42.327689,
    "lon": -89.074707,
    "name": "Evoqua Water Technologies LLC"
  },
  {
    "bureauId": "201801AAA",
    "agencySiteId": 170000168850,
    "lat": 42.220839,
    "lon": -88.980878,
    "name": "Maplehurst Farms Inc"
  },
  {
    "bureauId": "031201ADU",
    "agencySiteId": 170000028770,
    "lat": 42.017301,
    "lon": -87.777061,
    "name": "Johnson & Quin Inc"
  },
  {
    "bureauId": "031489AAM",
    "agencySiteId": 170000040319,
    "lat": 41.998897,
    "lon": -88.095042,
    "name": "United Engravers Inc"
  },
  {
    "bureauId": "029809AAA",
    "agencySiteId": 170000011485,
    "lat": 39.374606,
    "lon": -88.377547,
    "name": "Koch Nitrogen Co LLC"
  },
  {
    "bureauId": "031039AAA",
    "agencySiteId": 170000015891,
    "lat": 41.637025,
    "lon": -87.567324,
    "name": "Ashland Specialty Chemical Co"
  },
  {
    "bureauId": "031090AAY",
    "agencySiteId": 170000020876,
    "lat": 41.877625,
    "lon": -87.807634,
    "name": "Ferrara Candy Co"
  },
  {
    "bureauId": "031600EPY",
    "agencySiteId": 170000052323,
    "lat": 41.857692,
    "lon": -87.736356,
    "name": "Rohm and Haas Chemicals LLC"
  },
  {
    "bureauId": "075811AAE",
    "agencySiteId": 170000088072,
    "lat": 40.567643,
    "lon": -87.782834,
    "name": "Goodwine Cooperative Grain Co"
  },
  {
    "bureauId": "075812AAC",
    "agencySiteId": 170000088116,
    "lat": 40.770564,
    "lon": -87.858157,
    "name": "Wheatfield Grain Co LLC"
  },
  {
    "bureauId": "105810AAE",
    "agencySiteId": 170000110868,
    "lat": 40.752094,
    "lon": -88.359479,
    "name": "Zimmerman Feed & Grain Inc"
  },
  {
    "bureauId": "043450AAM",
    "agencySiteId": 170001902617,
    "lat": 41.987402,
    "lon": -88.040394,
    "name": "National Industrial Coatings Inc  DBA Nicoat Inc"
  },
  {
    "bureauId": "099120AAH",
    "agencySiteId": 170000106748,
    "lat": 41.462733,
    "lon": -89.081683,
    "name": "Technisand Inc"
  },
  {
    "bureauId": "099829AAA",
    "agencySiteId": 170000107943,
    "lat": 41.334533,
    "lon": -88.755775,
    "name": "SABIC Innovative Plastics US LLC"
  },
  {
    "bureauId": "143065AMF",
    "agencySiteId": 170000133889,
    "lat": 40.681908,
    "lon": -89.616799,
    "name": "Flowers Baking Co of Peoria LLC"
  },
  {
    "bureauId": "167817AAD",
    "agencySiteId": 170000147446,
    "lat": 39.813007,
    "lon": -89.392590,
    "name": "Mechanicsburg Farmers Grain Co"
  },
  {
    "bureauId": "019065ABI",
    "agencySiteId": 170000006044,
    "lat": 40.284844,
    "lon": -88.127044,
    "name": "Alan Smith dba Hartle Scrap Buyers"
  },
  {
    "bureauId": "161065AGJ",
    "agencySiteId": 170000141095,
    "lat": 41.509183,
    "lon": -90.547335,
    "name": "McLaughlin Body Co"
  },
  {
    "bureauId": "031186ADG",
    "agencySiteId": 170000026692,
    "lat": 41.900588,
    "lon": -87.897660,
    "name": "Bluewater Thermal Solutions Chicago 3"
  },
  {
    "bureauId": "043065ABG",
    "agencySiteId": 170000073550,
    "lat": 41.778959,
    "lon": -88.192373,
    "name": "K-Five Construction Co"
  },
  {
    "bureauId": "119813AAA",
    "agencySiteId": 170000125629,
    "lat": 38.661310,
    "lon": -90.079007,
    "name": "Maclair Asphalt Sales LLC"
  },
  {
    "bureauId": "197800ABE",
    "agencySiteId": 170000161642,
    "lat": 41.464561,
    "lon": -88.180161,
    "name": "Allwaste Container Services"
  },
  {
    "bureauId": "201030BAM",
    "agencySiteId": 170000167744,
    "lat": 42.198325,
    "lon": -89.042048,
    "name": "TR Excavating Inc"
  },
  {
    "bureauId": "031600FYI",
    "agencySiteId": 170000059745,
    "lat": 41.899093,
    "lon": -87.651354,
    "name": "Ogden Avenue Materials Inc"
  },
  {
    "bureauId": "113060AAV",
    "agencySiteId": 170000117610,
    "lat": 40.741535,
    "lon": -88.878769,
    "name": "Kerry Inc"
  },
  {
    "bureauId": "097200ABD",
    "agencySiteId": 170001422262,
    "lat": 42.475391,
    "lon": -87.887676,
    "name": "North Shore Sanitary Dist"
  },
  {
    "bureauId": "075090ABM",
    "agencySiteId": 170001703379,
    "lat": 40.775044,
    "lon": -87.722933,
    "name": "F & P Fiberglass Inc"
  },
  {
    "bureauId": "023020AAA",
    "agencySiteId": 170000008747,
    "lat": 39.455093,
    "lon": -87.988277,
    "name": "LittleJohn Grain Inc"
  },
  {
    "bureauId": "029806AAE",
    "agencySiteId": 170000011378,
    "lat": 39.493934,
    "lon": -88.370248,
    "name": "Howell Asphalt Co"
  },
  {
    "bureauId": "031012AEY",
    "agencySiteId": 170000013447,
    "lat": 41.761902,
    "lon": -87.768556,
    "name": "Pactiv LLC"
  },
  {
    "bureauId": "097190AAP",
    "agencySiteId": 170000102948,
    "lat": 42.366542,
    "lon": -87.823471,
    "name": "New NGC Inc"
  },
  {
    "bureauId": "103800AAD",
    "agencySiteId": 170000109237,
    "lat": 41.846954,
    "lon": -89.016171,
    "name": "Elburn Cooperative Co"
  },
  {
    "bureauId": "109035AAG",
    "agencySiteId": 170000112651,
    "lat": 40.474681,
    "lon": -90.686631,
    "name": "Western Illinois University"
  },
  {
    "bureauId": "043407AAI",
    "agencySiteId": 170000075727,
    "lat": 41.766309,
    "lon": -88.224969,
    "name": "Surface Guard Inc"
  },
  {
    "bureauId": "115015APS",
    "agencySiteId": 170001729173,
    "lat": 39.821096,
    "lon": -88.887019,
    "name": "Fresenius Medical Care"
  },
  {
    "bureauId": "163121ABI",
    "agencySiteId": 170001759032,
    "lat": 38.589479,
    "lon": -90.191723,
    "name": "River City Landscape Supply Inc"
  },
  {
    "bureauId": "197814AAC",
    "agencySiteId": 170000163418,
    "lat": 41.298556,
    "lon": -87.744580,
    "name": "Wood River Pipe Lines LP"
  },
  {
    "bureauId": "089483ACN",
    "agencySiteId": 170000094975,
    "lat": 41.912394,
    "lon": -88.269963,
    "name": "Omron Automotive Electronics Inc"
  },
  {
    "bureauId": "031288AJD",
    "agencySiteId": 170000034193,
    "lat": 42.026339,
    "lon": -87.715868,
    "name": "Peoples Gas Light & Coke Co"
  },
  {
    "bureauId": "097115ACF",
    "agencySiteId": 170000102154,
    "lat": 42.252594,
    "lon": -87.989276,
    "name": "Print-o-tape"
  },
  {
    "bureauId": "201030BCF",
    "agencySiteId": 170000168191,
    "lat": 42.244531,
    "lon": -88.994466,
    "name": "Arlington Memorial Park"
  },
  {
    "bureauId": "031012AGK",
    "agencySiteId": 170000013811,
    "lat": 41.770235,
    "lon": -87.746848,
    "name": "Corrugated Supplies Co LLC"
  },
  {
    "bureauId": "021813AAB",
    "agencySiteId": 170000008355,
    "lat": 39.393595,
    "lon": -89.237486,
    "name": "Christian County Limestone"
  },
  {
    "bureauId": "103813AAB",
    "agencySiteId": 170000109503,
    "lat": 41.759150,
    "lon": -89.397543,
    "name": "Magellan Pipeline Co LP"
  },
  {
    "bureauId": "115804AAC",
    "agencySiteId": 170000120964,
    "lat": 39.851604,
    "lon": -89.105202,
    "name": "Buckeye Terminals LLC"
  },
  {
    "bureauId": "197810AAL",
    "agencySiteId": 170000162963,
    "lat": 41.650075,
    "lon": -88.043801,
    "name": "ExxonMobil Oil Corp"
  },
  {
    "bureauId": "031600GKD",
    "agencySiteId": 170000062811,
    "lat": 41.875860,
    "lon": -87.631427,
    "name": "CenturyLink Communications-CHD"
  },
  {
    "bureauId": "063455AAD",
    "agencySiteId": 170001939801,
    "lat": 41.457245,
    "lon": -88.277480,
    "name": "WW Grainger Inc"
  },
  {
    "bureauId": "031186AGD",
    "agencySiteId": 170000026987,
    "lat": 41.909604,
    "lon": -87.870292,
    "name": "AGI North America LLC"
  },
  {
    "bureauId": "031306AAJ",
    "agencySiteId": 170000035281,
    "lat": 42.000068,
    "lon": -88.173674,
    "name": "Aluminum Coil Anodizing Corp"
  },
  {
    "bureauId": "043005AIR",
    "agencySiteId": 170000069681,
    "lat": 41.942879,
    "lon": -88.014968,
    "name": "Addison Animal Hospital LTD"
  },
  {
    "bureauId": "075812AAF",
    "agencySiteId": 170000088143,
    "lat": 40.750143,
    "lon": -88.019607,
    "name": "Interstate Asphalt LLC"
  },
  {
    "bureauId": "091065AAI",
    "agencySiteId": 170000096946,
    "lat": 41.158574,
    "lon": -87.656429,
    "name": "F R Orr Grain Co"
  },
  {
    "bureauId": "099823AAB",
    "agencySiteId": 170000107729,
    "lat": 41.501654,
    "lon": -89.020650,
    "name": "Northern Partners Cooperative"
  },
  {
    "bureauId": "035005AAL",
    "agencySiteId": 170000066559,
    "lat": 39.257147,
    "lon": -88.150540,
    "name": "Howell Asphalt Co"
  },
  {
    "bureauId": "197090ABM",
    "agencySiteId": 170001605822,
    "lat": 41.661536,
    "lon": -88.115055,
    "name": "Roll Group"
  },
  {
    "bureauId": "031600GYF",
    "agencySiteId": 170001907676,
    "lat": 41.886071,
    "lon": -87.633127,
    "name": "Level 3 Communications"
  },
  {
    "bureauId": "113813AAE",
    "agencySiteId": 170000118566,
    "lat": 40.509154,
    "lon": -89.054511,
    "name": "Mitsubishi Motors North America Inc"
  },
  {
    "bureauId": "143802AAC",
    "agencySiteId": 170000135066,
    "lat": 40.933337,
    "lon": -89.483991,
    "name": "Norco Pipe Line Co LLC"
  },
  {
    "bureauId": "197805AAP",
    "agencySiteId": 170000162188,
    "lat": 41.555173,
    "lon": -87.883553,
    "name": "Mobil Pipe Line Co"
  },
  {
    "bureauId": "197090AAN",
    "agencySiteId": 170000160787,
    "lat": 41.627633,
    "lon": -88.083706,
    "name": "Orange Crush LLC"
  },
  {
    "bureauId": "049025ABU",
    "agencySiteId": 170000079233,
    "lat": 39.087688,
    "lon": -88.546691,
    "name": "Kingery Printing Co"
  },
  {
    "bureauId": "099080ABY",
    "agencySiteId": 170000106249,
    "lat": 41.341333,
    "lon": -88.898045,
    "name": "Land Comp Corp"
  },
  {
    "bureauId": "031081AEX",
    "agencySiteId": 170000020304,
    "lat": 42.024521,
    "lon": -87.684658,
    "name": "Presence St Francis Hospital"
  },
  {
    "bureauId": "097807AAE",
    "agencySiteId": 170000104839,
    "lat": 42.334452,
    "lon": -88.131282,
    "name": "Baxter Healthcare Corp"
  },
  {
    "bureauId": "141810AAC",
    "agencySiteId": 170000132568,
    "lat": 42.051648,
    "lon": -89.540012,
    "name": "Bocker Grain Inc"
  },
  {
    "bureauId": "167120AKY",
    "agencySiteId": 170000146312,
    "lat": 39.810300,
    "lon": -89.655500,
    "name": "Memorial Medical Center"
  },
  {
    "bureauId": "031012AFH",
    "agencySiteId": 170000013535,
    "lat": 41.771012,
    "lon": -87.786955,
    "name": "Metal Management Midwest Inc"
  },
  {
    "bureauId": "119040ATC",
    "agencySiteId": 170000123747,
    "lat": 38.731240,
    "lon": -90.137908,
    "name": "Midwest Metal Coatings LLC"
  },
  {
    "bureauId": "053803AAL",
    "agencySiteId": 170000080935,
    "lat": 40.470534,
    "lon": -88.398755,
    "name": "Gibson City Energy Center LLC"
  },
  {
    "bureauId": "143065AYM",
    "agencySiteId": 170001729244,
    "lat": 40.693020,
    "lon": -89.598926,
    "name": "Fresenius Medical Care"
  },
  {
    "bureauId": "043407ABB",
    "agencySiteId": 170002042331,
    "lat": 41.811657,
    "lon": -88.231559,
    "name": "Kapstone Container Corp"
  },
  {
    "bureauId": "007005AAW",
    "agencySiteId": 170000002020,
    "lat": 42.252463,
    "lon": -88.857740,
    "name": "Central Commodities Ltd"
  },
  {
    "bureauId": "011809AAE",
    "agencySiteId": 170000003644,
    "lat": 41.560524,
    "lon": -89.649500,
    "name": "Atherton Grain Co Inc"
  },
  {
    "bureauId": "019065AAS",
    "agencySiteId": 170000005900,
    "lat": 40.315000,
    "lon": -88.195300,
    "name": "JELD-WEN"
  },
  {
    "bureauId": "031009ADZ",
    "agencySiteId": 170000012581,
    "lat": 42.133556,
    "lon": -87.997873,
    "name": "Nokia Siemens Networks US LLC"
  },
  {
    "bureauId": "031600FMK",
    "agencySiteId": 170000056686,
    "lat": 41.978379,
    "lon": -87.756119,
    "name": "Apollo Plastics"
  },
  {
    "bureauId": "063060AAZ",
    "agencySiteId": 170000083488,
    "lat": 41.354514,
    "lon": -88.427742,
    "name": "Elburn Cooperative Co"
  },
  {
    "bureauId": "011085ABN",
    "agencySiteId": 170001673687,
    "lat": 41.393374,
    "lon": -89.443089,
    "name": "Algonquian Ethanol LLC"
  },
  {
    "bureauId": "043090ADY",
    "agencySiteId": 170001810583,
    "lat": 41.866182,
    "lon": -88.214644,
    "name": "DuPage Topsoil Inc"
  },
  {
    "bureauId": "105806AAG",
    "agencySiteId": 170001878993,
    "lat": 41.094193,
    "lon": -88.420438,
    "name": "IR Systems Inc"
  },
  {
    "bureauId": "113020AGJ",
    "agencySiteId": 170000671057,
    "lat": 40.462560,
    "lon": -88.952743,
    "name": "State Farm Mutual Auto Insurance Co"
  },
  {
    "bureauId": "143810AAE",
    "agencySiteId": 170000135529,
    "lat": 40.839701,
    "lon": -89.555417,
    "name": "Caterpillar Inc"
  },
  {
    "bureauId": "011804AAC",
    "agencySiteId": 170000003591,
    "lat": 41.366616,
    "lon": -89.683999,
    "name": "Michlig Grain Holdings LLC"
  },
  {
    "bureauId": "031600FZW",
    "agencySiteId": 170000060145,
    "lat": 41.854603,
    "lon": -87.689354,
    "name": "Interior Crafts Inc"
  },
  {
    "bureauId": "031600GAV",
    "agencySiteId": 170000060396,
    "lat": 41.720273,
    "lon": -87.545152,
    "name": "Metal Management Midwest Inc"
  },
  {
    "bureauId": "145842AAA",
    "agencySiteId": 170000136154,
    "lat": 38.112840,
    "lon": -89.346408,
    "name": "Pinckneyville Power Plant"
  },
  {
    "bureauId": "057803AAD",
    "agencySiteId": 170000082461,
    "lat": 40.500685,
    "lon": -90.004949,
    "name": "New CIE OPCO LLC"
  },
  {
    "bureauId": "075812AAD",
    "agencySiteId": 170000088125,
    "lat": 40.763895,
    "lon": -88.086843,
    "name": "Ludlow Coop Elevator Co"
  },
  {
    "bureauId": "097035AAE",
    "agencySiteId": 170000100192,
    "lat": 42.384572,
    "lon": -87.900045,
    "name": "Acacia Spice Co"
  },
  {
    "bureauId": "097809AAX",
    "agencySiteId": 170000105008,
    "lat": 42.269638,
    "lon": -87.904744,
    "name": "Petco Inc"
  },
  {
    "bureauId": "099825AAE",
    "agencySiteId": 170000107774,
    "lat": 41.328634,
    "lon": -88.905078,
    "name": "Cargil Inc"
  },
  {
    "bureauId": "111812AAE",
    "agencySiteId": 170000116283,
    "lat": 42.285168,
    "lon": -88.641477,
    "name": "Schultz Farms & Grain Inc"
  },
  {
    "bureauId": "131805AAE",
    "agencySiteId": 170000128859,
    "lat": 41.196923,
    "lon": -90.730348,
    "name": "Hahn Ready Mix Co"
  },